e_datetime,game,gazex,gazey,headx,heady,headz,id,inner_height,inner_width,pitch,roll,u_name,yaw
2022-03-27 14:04:36,Pong,199,447,2.6,3.4,50.2,1,722,1536,-2.7,4.8,atest,2.3
2022-03-27 14:04:36,Pong,1030,642,2.5,3.5,50.7,2,722,1536,-2.7,4.4,atest,1.8
2022-03-27 14:04:36,Pong,1074,776,2.5,3.5,50.4,3,722,1536,-3,5,atest,2.1
2022-03-27 14:04:36,Pong,1032.4,799.2,2.5,3.5,50.7,4,722,1536,-3.2,4.3,atest,2.3
2022-03-27 14:04:36,Pong,950.2,801.4,2.5,3.5,50.5,5,722,1536,-2.8,4,atest,2.5
2022-03-27 14:04:36,Pong,1017.4,806.8,2.5,3.5,50.6,6,722,1536,-2.7,4.3,atest,2.5
2022-03-27 14:04:36,Pong,1033.8,807.8,2.5,3.5,50.5,7,722,1536,-2.9,4.3,atest,2.4
2022-03-27 14:04:36,Pong,1039.6,813.6,2.5,3.5,50.5,8,722,1536,-2.7,4,atest,2.5
2022-03-27 14:04:36,Pong,1042.2,808.8,2.5,3.4,50.7,9,722,1536,-2.6,3.9,atest,2.5
2022-03-27 14:04:36,Pong,1044.2,785.4,2.5,3.5,50.4,10,722,1536,-2.5,3.9,atest,2.5
2022-03-27 14:04:36,Pong,1063.8,774,2.5,3.5,50.4,11,722,1536,-2.2,4.2,atest,2.4
2022-03-27 14:04:36,Pong,1059.6,778.8,2.5,3.5,50.4,12,722,1536,-2.4,4.1,atest,2.5
2022-03-27 14:04:36,Pong,1055.6,767.2,2.5,3.5,50.4,13,722,1536,-1.9,4.1,atest,2.5
2022-03-27 14:04:36,Pong,1063.8,769.2,2.5,3.5,50.3,14,722,1536,-1.8,4.1,atest,2.5
2022-03-27 14:04:36,Pong,1078.8,780,2.5,3.5,50.2,15,722,1536,-1.8,4.2,atest,2.4
2022-03-27 14:04:36,Pong,1062.2,797,2.5,3.5,50.1,16,722,1536,-1.9,4.2,atest,2.2
2022-03-27 14:04:36,Pong,1059.8,804.8,2.5,3.5,50.1,17,722,1536,-2.1,4.1,atest,2.2
2022-03-27 14:04:37,Pong,1066.2,775.2,2.5,3.6,50.2,18,722,1536,-2.9,4.2,atest,2.2
2022-03-27 14:04:37,Pong,1060.6,757.2,2.4,4,50.6,19,722,1536,-3.4,3.7,atest,2.2
2022-03-27 14:04:37,Pong,1039.6,829.8,2.2,4.7,51.1,20,722,1536,-3.3,2.5,atest,1.2
2022-03-27 14:04:37,Pong,1048,784.4,2.2,4.5,51.1,21,722,1536,-2.8,3,atest,1.7
2022-03-27 14:04:37,Pong,1145,1027,2.3,4.8,51.3,22,722,1536,-3.6,3.1,atest,1.4
2022-03-27 14:04:37,Pong,1209,1229,2.5,4.9,52,23,722,1536,-3.2,3.5,atest,2
2022-03-27 14:04:37,Pong,1180.8,1279.8,2.6,4.9,51.7,24,722,1536,-3,3.5,atest,2.5
2022-03-27 14:04:37,Pong,1062,1168,2.5,4.7,50.8,25,722,1536,-3.1,3.3,atest,2.9
2022-03-27 14:04:37,Pong,1078,855,2.6,4.6,50.2,26,722,1536,-3.3,4,atest,3.1
2022-03-27 14:04:37,Pong,1063,629,2.7,4.5,49.8,27,722,1536,-3.4,4.3,atest,3.2
2022-03-27 14:04:37,Pong,1014.6,632.6,2.8,4.6,49.7,28,722,1536,-3.5,3.9,atest,3.6
2022-03-27 14:04:37,Pong,917.6,670.6,2.9,4.7,49.7,29,722,1536,-2,3.3,atest,4
2022-03-27 14:04:37,Pong,941.6,678.8,3.1,4.6,49.4,30,722,1536,-1.9,3.9,atest,4.3
2022-03-27 14:04:37,Pong,999.4,688.4,3.1,4.4,48.4,31,722,1536,-1.7,4.4,atest,4
2022-03-27 14:04:37,Pong,1009.2,692.4,2.6,4.3,48,32,722,1536,-1.4,3.5,atest,3.5
2022-03-27 14:04:37,Pong,970.4,687.2,1.9,4.4,48.4,33,722,1536,-0.9,1.3,atest,3.9
2022-03-27 14:04:37,Pong,690,744,1.1,4.4,49,34,722,1536,0.4,-1.2,atest,4.7
2022-03-27 14:04:37,Pong,706.4,758.2,0.3,3.8,48.8,35,722,1536,1.8,-3.5,atest,4.6
2022-03-27 14:04:37,Pong,675.6,748,-0.5,2.8,47.4,36,722,1536,2.4,-2.6,atest,4.5
2022-03-27 14:04:37,Pong,651.4,769.4,-0.9,2,46.6,37,722,1536,2.7,-2.4,atest,4.8
2022-03-27 14:04:37,Pong,755,874.6,-1,1.7,46.6,38,722,1536,1.6,-2.5,atest,4.6
2022-03-27 14:04:38,Pong,903,788,-1,1.8,46.4,39,722,1536,2.5,-3.5,atest,4.6
2022-03-27 14:04:38,Pong,935,775,-1.1,1.8,46.2,40,722,1536,1.9,-2.5,atest,4.3
2022-03-27 14:04:38,Pong,939.4,778,-1.1,1.8,45.9,41,722,1536,2.6,-2.3,atest,4.2
2022-03-27 14:04:38,Pong,922,758.4,-0.8,1.5,45.1,42,722,1536,3,-1.3,atest,4.1
2022-03-27 14:04:38,Pong,912,747,-0.4,1,44.4,43,722,1536,3.5,-0.7,atest,4
2022-03-27 14:04:38,Pong,921.4,746.8,0.2,-0.1,43.2,44,722,1536,4.2,1,atest,4
2022-03-27 14:04:38,Pong,913,687.4,0.5,-1.1,42,45,722,1536,6.1,1.3,atest,4.1
2022-03-27 14:04:38,Pong,910,685.6,0.5,-1.4,41.8,46,722,1536,6.2,2.5,atest,4.2
2022-03-27 14:04:38,Pong,902.6,668.8,0.7,-2.1,41,47,722,1536,8,2.9,atest,4.3
2022-03-27 14:04:38,Pong,893,658.8,1,-2.8,40.5,48,722,1536,9.1,2.5,atest,4.4
2022-03-27 14:04:38,Pong,892.6,661.4,1,-3,40.3,49,722,1536,10.7,2.3,atest,4.6
2022-03-27 14:04:38,Pong,873.8,640.6,1.2,-4,39.7,50,722,1536,15.7,2.4,atest,4.6
2022-03-27 14:04:38,Pong,902,650.6,1.4,-5.2,39.1,51,722,1536,18.1,2.4,atest,3.6
2022-03-27 14:04:38,Pong,918.2,599.8,1.5,-6.2,38.7,52,722,1536,18.2,1.3,atest,3.4
2022-03-27 14:04:38,Pong,1054.2,519.2,1.5,-4.6,40,53,722,1536,15.6,2.3,atest,4.8
2022-03-27 14:04:38,Pong,1010.8,510.4,1.5,-4,40.9,54,722,1536,11.6,1.8,atest,4.3
2022-03-27 14:04:38,Pong,928.2,430.2,1.3,-2.7,41,55,722,1536,9.6,1.2,atest,3.8
2022-03-27 14:04:38,Pong,975.2,489.8,1,-1,42.2,56,722,1536,5.2,1.8,atest,2.8
2022-03-27 14:04:38,Pong,992,537.2,1,-1.4,41.5,57,722,1536,5.2,2.2,atest,2.8
2022-03-27 14:04:38,Pong,965,552.4,1,-1.3,41.5,58,722,1536,5.3,1.9,atest,2.9
2022-03-27 14:04:39,Pong,969,566.8,1,-0.8,41.7,59,722,1536,3.9,0.7,atest,4.3
2022-03-27 14:04:39,Pong,970.2,557.8,1.1,0.5,42.4,60,722,1536,1.6,0.3,atest,4.1
2022-03-27 14:04:39,Pong,993,614.8,1.1,0.8,42.3,61,722,1536,1.8,0.4,atest,3.5
2022-03-27 14:04:39,Pong,986.2,599.8,1,0.9,42.4,62,722,1536,2.1,-0.5,atest,4.1
2022-03-27 14:04:39,Pong,967.2,599.8,1.1,0.9,42.4,63,722,1536,2.1,-0.8,atest,4.3
2022-03-27 14:04:39,Pong,972.2,590,1.1,0.7,42.2,64,722,1536,2.7,-0.9,atest,4.7
2022-03-27 14:04:39,Pong,967.4,608.4,1.1,0.4,42.2,65,722,1536,2.3,-1.2,atest,4.5
2022-03-27 14:04:39,Pong,933.6,607,1.2,0.2,42.1,66,722,1536,1.9,-2,atest,4.6
2022-03-27 14:04:39,Pong,925.6,615,1.1,0.1,42.1,67,722,1536,2.1,-2.1,atest,4.6
2022-03-27 14:04:39,Pong,955.2,575,1.1,0.1,42.2,68,722,1536,3.2,-2.1,atest,4.6
2022-03-27 14:04:39,Pong,947.4,581.2,1.1,0.1,42.2,69,722,1536,3.1,-2.2,atest,4.6
2022-03-27 14:04:39,Pong,953,623.8,1.1,0.1,42.2,70,722,1536,2.7,-2.2,atest,4.6
2022-03-27 14:04:39,Pong,900.6,606,1.1,0.1,42.2,71,722,1536,3.5,-3.1,atest,4.7
2022-03-27 14:04:39,Pong,882,598.2,1.1,0,42,72,722,1536,3.9,-3.4,atest,4.6
2022-03-27 14:04:39,Pong,872.8,601.2,1,-0.1,41.9,73,722,1536,3.9,-3.5,atest,4.5
2022-03-27 14:04:39,Pong,866,608.8,1,-0.2,41.8,74,722,1536,3.9,-3.5,atest,4.5
2022-03-27 14:04:39,Pong,715,460,1,-0.3,41.8,75,722,1536,4.4,-3.5,atest,4.5
2022-03-27 14:04:39,Pong,748.2,382.8,1,-0.3,41.8,76,722,1536,4.9,-3.5,atest,4.5
2022-03-27 14:04:39,Pong,525,-3.8,1,-0.3,41.8,77,722,1536,5.6,-3.1,atest,4.5
2022-03-27 14:04:39,Pong,521.6,-16,1,-0.3,41.9,78,722,1536,5.4,-2.7,atest,4.5
2022-03-27 14:04:40,Pong,525.8,-18.8,1,-0.3,41.9,79,722,1536,5.5,-2.8,atest,4.5
2022-03-27 14:04:40,Pong,669,580,1.1,-0.5,41.8,80,722,1536,5,-2.6,atest,5.5
2022-03-27 14:04:40,Pong,715,599.2,1.1,-0.6,41.6,81,722,1536,4.4,-2,atest,5.3
2022-03-27 14:04:40,Pong,732.2,609.6,1.2,-0.8,41.5,82,722,1536,4.7,-1.8,atest,5.3
2022-03-27 14:04:40,Pong,745.8,618.2,1.2,-0.9,41.3,83,722,1536,4.6,-1.8,atest,5.3
2022-03-27 14:04:40,Pong,757.4,603.6,1.3,-1.1,41.2,84,722,1536,4.7,-1.8,atest,5.3
2022-03-27 14:04:40,Pong,765.6,608.8,1.3,-1.1,41.1,85,722,1536,5,-1.8,atest,5.3
2022-03-27 14:04:40,Pong,781.8,625.6,1.3,-1.1,41.1,86,722,1536,4.9,-1.7,atest,5.3
2022-03-27 14:04:40,Pong,783.6,630,1.3,-1.1,41.1,87,722,1536,4.9,-1.7,atest,5.3
2022-03-27 14:04:40,Pong,788.2,637.4,1.3,-1.1,41.1,88,722,1536,4.9,-1.7,atest,5.3
2022-03-27 14:04:40,Pong,792.6,626.4,1.3,-1.1,41.2,89,722,1536,5.3,-1.7,atest,5.3
2022-03-27 14:04:40,Pong,916,460,1.3,-1.2,41.2,90,722,1536,5.6,-1,atest,5.3
2022-03-27 14:04:40,Pong,1037,313,1.3,-1.2,41.3,91,722,1536,5.6,-0.8,atest,5.3
2022-03-27 14:04:40,Pong,936,143,1.3,-1.2,41.3,92,722,1536,5.7,-0.5,atest,5.4
2022-03-27 14:04:40,Pong,923,126.6,1.3,-1.3,41.3,93,722,1536,5.8,-0.2,atest,5.4
2022-03-27 14:04:40,Pong,807,521,1.1,-1.2,41.4,94,722,1536,3.6,-1.8,atest,4.8
2022-03-27 14:04:40,Pong,817.6,563.4,0.5,-1.2,41.8,95,722,1536,3.7,-1.9,atest,4.3
2022-03-27 14:04:40,Pong,830.8,573.4,0.4,-1.2,41.8,96,722,1536,3.6,-1.8,atest,3.9
2022-03-27 14:04:40,Pong,845.4,582.6,0.3,-1.1,41.9,97,722,1536,3.9,-1.7,atest,3.3
2022-03-27 14:04:40,Pong,858.8,591.8,0.1,-1.1,42,98,722,1536,3.7,-1.2,atest,3
2022-03-27 14:04:40,Pong,856.8,591.8,0.1,-1.1,42,99,722,1536,3.9,-0.9,atest,2.9
2022-03-27 14:04:40,Pong,811,556,0,-1.1,42,100,722,1536,5.4,-1.2,atest,2.9
2022-03-27 14:04:40,Pong,681.8,477.8,0,-1.2,42,101,722,1536,5.5,-1.3,atest,2.9
2022-03-27 14:04:40,Pong,667.2,466.4,-0.1,-1.2,42,102,722,1536,5.6,-1.3,atest,2.9
2022-03-27 14:04:41,Pong,645,417.6,-0.1,-1.2,42,103,722,1536,5.7,-1.3,atest,2.9
2022-03-27 14:04:41,Pong,626.8,292.6,-0.1,-1.2,42,104,722,1536,5.8,-1.3,atest,2.9
2022-03-27 14:04:41,Pong,668,628,0,-1.3,42,105,722,1536,4.7,-1.5,atest,2.9
2022-03-27 14:04:41,Pong,722.4,589,0.2,-1.7,42.3,106,722,1536,4.2,-1.7,atest,2.8
2022-03-27 14:04:41,Pong,765.6,497.4,0.3,-1.9,42.2,107,722,1536,3.7,-1.6,atest,2.8
2022-03-27 14:04:41,Pong,728.8,520.2,0.3,-1.9,42.2,108,722,1536,3.9,-1.7,atest,3.3
2022-03-27 14:04:41,Pong,719.4,510,0.6,-2.1,41.8,109,722,1536,4,-1.7,atest,4.1
2022-03-27 14:04:41,Pong,207,500,0.7,-2.1,41.8,110,722,1536,5.2,-2.3,atest,4.1
2022-03-27 14:04:41,Pong,129,491.8,0.7,-2.1,41.7,111,722,1536,5.3,-2.5,atest,4.1
2022-03-27 14:04:41,Pong,-14.2,709,0.8,-2.1,41.6,112,722,1536,4.4,-2.5,atest,4.1
2022-03-27 14:04:41,Pong,-10.8,756.2,0.8,-2.1,41.6,113,722,1536,4,-2.3,atest,4.1
2022-03-27 14:04:41,Pong,845,531,0.9,-2.1,41.7,114,722,1536,4.1,-2.8,atest,5.2
2022-03-27 14:04:41,Pong,730.6,512.8,0.6,-2,41.9,115,722,1536,4.2,-1.5,atest,4.1
2022-03-27 14:04:41,Pong,556,492,0.9,-2.1,41.8,116,722,1536,4.4,-3.2,atest,4.2
2022-03-27 14:04:41,Pong,562.2,527.6,0.9,-2.2,41.8,117,722,1536,5.2,-2.4,atest,3.3
2022-03-27 14:04:41,Pong,567.8,553,0.9,-2.2,41.8,118,722,1536,5.3,-2.2,atest,3.4
2022-03-27 14:04:41,Pong,579.4,576.8,0.9,-2.3,41.8,119,722,1536,5.2,-2.1,atest,3.4
2022-03-27 14:04:41,Pong,569.2,614.2,0.8,-2.3,41.8,120,722,1536,5.3,-2.1,atest,3.4
2022-03-27 14:04:41,Pong,566.8,630.2,0.8,-2.3,41.7,121,722,1536,5.2,-2.1,atest,3.4
2022-03-27 14:04:41,Pong,564.8,642.4,0.8,-2.3,41.7,122,722,1536,5.2,-2.1,atest,3.5
2022-03-27 14:04:41,Pong,569.4,649.6,0.8,-2.3,41.7,123,722,1536,5.2,-2.1,atest,3.4
2022-03-27 14:04:41,Pong,582.4,649.8,0.8,-2.3,41.7,124,722,1536,5.1,-2.1,atest,3.4
2022-03-27 14:04:42,Pong,599.2,643,0.8,-2.3,41.7,125,722,1536,5,-1.8,atest,3.4
2022-03-27 14:04:42,Pong,612,642,0.8,-2.3,41.7,126,722,1536,4.9,-1.8,atest,3.5
2022-03-27 14:04:42,Pong,623.6,649.2,0.8,-2.2,41.6,127,722,1536,4.9,-1.8,atest,3.5
2022-03-27 14:04:42,Pong,666.6,674.2,0.8,-2.2,41.6,128,722,1536,4.8,-1.9,atest,3.5
2022-03-27 14:04:42,Pong,691.6,686,0.8,-2.2,41.6,129,722,1536,4.8,-1.9,atest,3.5
2022-03-27 14:04:42,Pong,701.2,684.8,0.8,-2.2,41.6,130,722,1536,4.8,-1.8,atest,3.5
2022-03-27 14:04:42,Pong,670.6,672,0.8,-2.2,41.6,131,722,1536,4.4,-1.8,atest,3.6
2022-03-27 14:04:42,Pong,643.2,681.2,0.8,-2.2,41.6,132,722,1536,4.4,-1.9,atest,3.6
2022-03-27 14:04:42,Pong,221,623,0.8,-2.1,41.6,133,722,1536,4.7,-2.1,atest,3.7
2022-03-27 14:04:42,Pong,188,422,0.8,-2.1,41.6,134,722,1536,5.9,-2.1,atest,3.7
2022-03-27 14:04:42,Pong,165.4,447,0.8,-2.1,41.6,135,722,1536,6,-2.1,atest,3.8
2022-03-27 14:04:42,Pong,156,615,0.8,-2.1,41.6,136,722,1536,5.5,-2.2,atest,3.8
2022-03-27 14:04:42,Pong,237.8,617.4,0.8,-2.1,41.6,137,722,1536,5.2,-2.1,atest,3.8
2022-03-27 14:04:42,Pong,707,581,0.8,-2.1,41.5,138,722,1536,4.9,-1.7,atest,3.8
2022-03-27 14:04:42,Pong,913,624,0.7,-2.1,41.5,139,722,1536,4.8,-1.5,atest,3.8
2022-03-27 14:04:42,Pong,940.4,595.6,0.7,-2.1,41.5,140,722,1536,4.8,-1.4,atest,3.8
2022-03-27 14:04:42,Pong,960.4,571.4,0.7,-2.1,41.5,141,722,1536,4.8,-1.4,atest,3.8
2022-03-27 14:04:42,Pong,966.6,568.2,0.7,-2.1,41.5,142,722,1536,4.7,-1.4,atest,3.8
2022-03-27 14:04:42,Pong,957.2,577,0.7,-2.2,41.5,143,722,1536,4.9,-1.4,atest,3.8
2022-03-27 14:04:42,Pong,1315,812,0.7,-2.2,41.5,144,722,1536,5.3,-1.2,atest,3.8
2022-03-27 14:04:42,Pong,842,708,0.7,-2.1,41.6,145,722,1536,5,-1.7,atest,3.8
2022-03-27 14:04:42,Pong,827.8,699.8,0.6,-2.1,41.7,146,722,1536,4.8,-1.7,atest,3.8
2022-03-27 14:04:42,Pong,838.2,725.6,0.6,-2.1,41.8,147,722,1536,4.9,-1.7,atest,3.8
2022-03-27 14:04:42,Pong,854.6,744.6,0.5,-2.1,41.9,148,722,1536,4.9,-1.6,atest,3.9
2022-03-27 14:04:42,Pong,920.8,776.6,0.5,-2.1,41.9,149,722,1536,5,-1.6,atest,3.9
2022-03-27 14:04:42,Pong,1015.8,770.4,0.4,-2.1,42,150,722,1536,5.1,-1.6,atest,3.9
2022-03-27 14:04:42,Pong,1022,783.6,0.4,-2.1,42,151,722,1536,5,-1.6,atest,3.9
2022-03-27 14:04:43,Pong,662,854,0.4,-2.1,42,152,722,1536,4.7,-2.2,atest,3.8
2022-03-27 14:04:43,Pong,641.8,841.8,0.4,-2.1,42.1,153,722,1536,4.5,-2.3,atest,3.8
2022-03-27 14:04:43,Pong,665.4,810,0.3,-2.1,42.1,154,722,1536,4.4,-2.3,atest,3.8
2022-03-27 14:04:43,Pong,670.2,796.2,0.3,-2.1,42.1,155,722,1536,4.4,-2.3,atest,3.7
2022-03-27 14:04:43,Pong,662.2,758.4,0.3,-2.1,42.1,156,722,1536,4.3,-2.3,atest,3.7
2022-03-27 14:04:43,Pong,666.6,704.2,0.3,-2.1,42.1,157,722,1536,4.3,-2.3,atest,3.7
2022-03-27 14:04:43,Pong,662.6,641.6,0.3,-2.1,42.1,158,722,1536,4.2,-2.3,atest,3.7
2022-03-27 14:04:43,Pong,564,461,0.3,-2.1,42.1,159,722,1536,3.7,-2.6,atest,3.6
2022-03-27 14:04:43,Pong,540.4,521.6,0.3,-1.9,42,160,722,1536,4.1,-2.7,atest,3.5
2022-03-27 14:04:43,Pong,528.8,539,0.3,-1.9,42,161,722,1536,4.1,-2.7,atest,3.5
2022-03-27 14:04:43,Pong,518,546,0.3,-1.9,42,162,722,1536,4.1,-2.7,atest,3.5
2022-03-27 14:04:43,Pong,508.4,552.6,0.3,-1.9,42,163,722,1536,4.1,-2.8,atest,3.5
2022-03-27 14:04:43,Pong,484,578.8,0.3,-1.9,42,164,722,1536,4.2,-2.8,atest,3.5
2022-03-27 14:04:43,Pong,479,565.2,0.4,-2,41.7,165,722,1536,4.8,-2.7,atest,3.9
2022-03-27 14:04:43,Pong,480.8,563.2,0.4,-2.1,41.8,166,722,1536,4.6,-2.8,atest,4
2022-03-27 14:04:43,Pong,487.2,564.4,0.4,-2.1,41.8,167,722,1536,4.5,-2.9,atest,4
2022-03-27 14:04:43,Pong,510.6,558.4,0.4,-2,41.9,168,722,1536,4.3,-2.7,atest,3.9
2022-03-27 14:04:43,Pong,517.4,557.2,0.4,-2,41.9,169,722,1536,4.3,-2.7,atest,3.9
2022-03-27 14:04:43,Pong,516.2,550.2,0.4,-2,41.9,170,722,1536,4.5,-2.7,atest,3.9
2022-03-27 14:04:43,Pong,514,542.6,0.4,-2,41.7,171,722,1536,5,-2.7,atest,3.9
2022-03-27 14:04:43,Pong,512,541.6,0.4,-2,41.7,172,722,1536,5,-2.7,atest,3.9
2022-03-27 14:04:43,Pong,511.6,539.6,0.4,-2,41.7,173,722,1536,4.9,-2.6,atest,3.9
2022-03-27 14:04:43,Pong,513.2,540.2,0.4,-2,41.7,174,722,1536,4.8,-2.6,atest,3.9
2022-03-27 14:04:44,Pong,501,568.2,0.4,-2,42.2,175,722,1536,4.5,-3.1,atest,3.8
2022-03-27 14:04:44,Pong,539.4,568.4,0.4,-2,42.1,176,722,1536,4.5,-2.7,atest,4
2022-03-27 14:04:44,Pong,523.6,548,0.4,-2,42.1,177,722,1536,4.4,-2.6,atest,3.8
2022-03-27 14:04:44,Pong,521.8,541.6,0.4,-2,41.8,178,722,1536,4.1,-2.5,atest,3.7
2022-03-27 14:04:44,Pong,561.8,561.6,0.4,-2,42.4,179,722,1536,4.4,-2.4,atest,3.7
2022-03-27 14:04:44,Pong,545.6,559.8,0.4,-2,42.2,180,722,1536,5,-2.5,atest,3.8
2022-03-27 14:04:44,Pong,552.6,559.8,0.4,-2,42.2,181,722,1536,4.5,-2.5,atest,3.9
2022-03-27 14:04:44,Pong,562.4,565,0.3,-2,42.3,182,722,1536,4.7,-2.5,atest,3.7
2022-03-27 14:04:44,Pong,563.2,591,0.3,-1.9,42.2,183,722,1536,4.7,-2.7,atest,3.8
2022-03-27 14:04:44,Pong,579.6,630.8,0.3,-2,42.2,184,722,1536,4.8,-2.5,atest,3.8
2022-03-27 14:04:44,Pong,586.2,645.4,0.4,-2,42.3,185,722,1536,4.9,-2.6,atest,3.8
2022-03-27 14:04:44,Pong,592.6,738.6,0.4,-2,42.2,186,722,1536,5.1,-2.2,atest,4
2022-03-27 14:04:44,Pong,474,874.4,0.5,-2,42.3,187,722,1536,4.7,-2.3,atest,4
2022-03-27 14:04:44,Pong,477.8,880.8,0.5,-2.1,42.2,188,722,1536,4.9,-2.2,atest,4.2
2022-03-27 14:04:44,Pong,504,883.4,0.5,-2.1,42.2,189,722,1536,4.7,-2.2,atest,3.8
2022-03-27 14:04:44,Pong,503.4,953.8,0.5,-2,42.3,190,722,1536,4.7,-2.5,atest,3.9
2022-03-27 14:04:44,Pong,526.2,879.4,0.5,-2,42.5,191,722,1536,4.6,-2.2,atest,3.9
2022-03-27 14:04:44,Pong,544.2,875.4,0.5,-2,42.5,192,722,1536,4.6,-2.4,atest,4
2022-03-27 14:04:44,Pong,554.4,872.4,0.5,-2,42.3,193,722,1536,4.7,-2.5,atest,3.8
2022-03-27 14:04:44,Pong,582,867.6,0.5,-2,42.3,194,722,1536,4.5,-2.6,atest,4.1
2022-03-27 14:04:45,Pong,585.8,865,0.5,-2,42.3,195,722,1536,4.6,-2.3,atest,4
2022-03-27 14:04:45,Pong,588.4,865.2,0.5,-2,42.5,196,722,1536,4.4,-2.5,atest,4
2022-03-27 14:04:45,Pong,591.2,882.4,0.5,-2,42.5,197,722,1536,4.4,-2.4,atest,4
2022-03-27 14:04:45,Pong,593.2,877.6,0.5,-2,42.4,198,722,1536,4.7,-2.5,atest,3.9
2022-03-27 14:04:45,Pong,600.4,867.6,0.4,-1.9,42.3,199,722,1536,4.1,-2.6,atest,4.2
2022-03-27 14:04:45,Pong,612.4,856,0.5,-1.9,42.2,200,722,1536,4.3,-2.3,atest,4.1
2022-03-27 14:04:45,Pong,605.8,861.6,0.4,-1.9,42.3,201,722,1536,4.3,-2.7,atest,3.9
2022-03-27 14:04:45,Pong,607,862.6,0.5,-1.9,42.5,202,722,1536,4.6,-2.4,atest,4.1
2022-03-27 14:04:45,Pong,610.4,871.4,0.5,-1.8,42.6,203,722,1536,4,-2.5,atest,4.3
2022-03-27 14:04:45,Pong,613,858.8,0.5,-1.6,42.8,204,722,1536,4.1,-2,atest,4.8
2022-03-27 14:04:45,Pong,706,466,0.5,-1.7,42.6,205,722,1536,4.3,-2.1,atest,4
2022-03-27 14:04:45,Pong,716.6,393.8,0.5,-1.7,42.8,206,722,1536,4.1,-2.2,atest,3.9
2022-03-27 14:04:45,Pong,704.2,387.4,0.5,-1.7,42.7,207,722,1536,4.4,-2.2,atest,3.8
2022-03-27 14:04:45,Pong,685.4,338.4,0.5,-1.6,42.7,208,722,1536,3.8,-2.3,atest,4
2022-03-27 14:04:45,Pong,690.4,322.8,0.5,-1.6,42.6,209,722,1536,3.6,-2.3,atest,3.9
2022-03-27 14:04:45,Pong,696.6,300.2,0.4,-1.6,42.9,210,722,1536,3.7,-2.4,atest,3.7
2022-03-27 14:04:45,Pong,722.8,320.2,0.5,-1.4,43.2,211,722,1536,4.2,-2.4,atest,3.3
2022-03-27 14:04:45,Pong,700.6,292,0.4,-1.5,42.9,212,722,1536,4.2,-2.6,atest,3.7
2022-03-27 14:04:45,Pong,673.2,272.6,0.4,-1.5,42.8,213,722,1536,4.1,-2.7,atest,3.7
2022-03-27 14:04:45,Pong,659.8,281,0.5,-1.5,42.8,214,722,1536,4.2,-2.3,atest,4.1
2022-03-27 14:04:45,Pong,656.6,279.6,0.6,-1.6,42.7,215,722,1536,3.9,-2.3,atest,4.1
2022-03-27 14:04:46,Pong,642.8,280.8,0.6,-1.6,42.7,216,722,1536,4.5,-2.5,atest,4.1
2022-03-27 14:04:46,Pong,633.8,281.4,0.6,-1.6,42.9,217,722,1536,4.3,-2.7,atest,4
2022-03-27 14:04:46,Pong,628.2,281.8,0.6,-1.7,42.9,218,722,1536,4,-2.4,atest,4.4
2022-03-27 14:04:46,Pong,620,283.6,0.6,-1.7,42.9,219,722,1536,3.7,-2.5,atest,4.4
2022-03-27 14:04:46,Pong,618.8,287.2,0.6,-1.8,42.7,220,722,1536,4,-2.2,atest,4.3
2022-03-27 14:04:46,Pong,613.4,294.2,0.6,-1.8,42.9,221,722,1536,4.2,-2.2,atest,3.7
2022-03-27 14:04:46,Pong,601.4,293.2,0.6,-1.8,42.5,222,722,1536,4.4,-2.5,atest,3.8
2022-03-27 14:04:46,Pong,600.8,300.4,0.7,-1.9,42.5,223,722,1536,4.6,-2.5,atest,4.5
2022-03-27 14:04:46,Pong,598.8,301.4,0.7,-1.9,42.4,224,722,1536,4.2,-2.7,atest,4.5
2022-03-27 14:04:46,Pong,597,301,0.7,-1.8,42.7,225,722,1536,4.1,-2.9,atest,4.5
2022-03-27 14:04:46,Pong,590.6,304.6,0.8,-1.8,42.5,226,722,1536,4.7,-2.5,atest,4.7
2022-03-27 14:04:46,Pong,584,301.6,0.9,-1.6,42.6,227,722,1536,3,-2.7,atest,4.4
2022-03-27 14:04:46,Pong,580.8,316.2,0.8,-1.5,42.8,228,722,1536,3.8,-2.9,atest,4.6
2022-03-27 14:04:46,Pong,586.4,314,0.8,-0.8,43.1,229,722,1536,2.8,-2.5,atest,4
2022-03-27 14:04:46,Pong,591,313.6,0.9,-0.5,43.3,230,722,1536,2.3,-2.6,atest,3.8
2022-03-27 14:04:46,Pong,595.8,317.4,0.9,-0.1,43.5,231,722,1536,1.5,-2.6,atest,3.9
2022-03-27 14:04:46,Pong,606.4,311.8,0.8,1.1,44.2,232,722,1536,-0.4,-2.7,atest,3.4
2022-03-27 14:04:46,Pong,615.4,314.8,0.8,1.7,44.4,233,722,1536,-0.8,-2.8,atest,3.4
2022-03-27 14:04:46,Pong,630.8,316.4,0.8,2.7,44.8,234,722,1536,-3.4,-2.2,atest,2.7
2022-03-27 14:04:46,Pong,648.8,314.4,0.8,3,45.2,235,722,1536,-4.3,-1.8,atest,3
2022-03-27 14:04:46,Pong,652,316.8,0.9,3.4,45.3,236,722,1536,-4.9,-2.1,atest,2.7
2022-03-27 14:04:47,Pong,659.4,322.2,1,4.2,45.8,237,722,1536,-5.6,-2.2,atest,2.7
2022-03-27 14:04:47,Pong,717.2,307.4,0.9,4.9,46.3,238,722,1536,-7.1,-1.8,atest,3
2022-03-27 14:04:47,Pong,713.2,290.4,1,6.6,47,239,722,1536,-8.7,-2.5,atest,3.3
2022-03-27 14:04:47,Pong,689.8,283.4,0.8,7.5,46.9,240,722,1536,-9.5,-2.6,atest,2.7
2022-03-27 14:04:47,Pong,677.6,264.4,0.6,7.8,47.3,241,722,1536,-9.7,-3.3,atest,2.9
2022-03-27 14:04:47,Pong,600,-13.6,0.3,4.8,45.6,242,722,1536,-5.1,-4.4,atest,4.5
2022-03-27 14:04:47,Pong,752,430,0.5,3.5,44.3,243,722,1536,-3.2,-1.5,atest,3.2
2022-03-27 14:04:47,Pong,201,285,0.9,2.7,42.6,244,722,1536,-3.3,0.6,atest,0.9
2022-03-27 14:04:47,Pong,462,183,0.8,1.9,44.4,245,722,1536,-4.1,-2.7,atest,4.9
2022-03-27 14:04:47,Pong,606,327,0.7,2.4,44.6,246,722,1536,-1.9,-3.4,atest,4.5
2022-03-27 14:04:47,Pong,611.8,332.8,0.6,2.9,44.5,247,722,1536,-2.8,-3.4,atest,4.5
2022-03-27 14:04:47,Pong,621.8,342.8,0.6,2.8,44.6,248,722,1536,-2.8,-3.2,atest,4
2022-03-27 14:04:47,Pong,619.2,338.8,0.6,2.6,44.6,249,722,1536,-2.4,-3,atest,4.3
2022-03-27 14:04:47,Pong,622.4,335.4,0.6,2.3,44.4,250,722,1536,-2.3,-3,atest,4.3
2022-03-27 14:04:47,Pong,564,662,0.6,2.5,44.8,251,722,1536,-3.1,-3.7,atest,4.5
2022-03-27 14:04:47,Pong,625,815,0.7,2.5,44.6,252,722,1536,-2.6,-3.4,atest,4
2022-03-27 14:04:47,Pong,603.8,764.2,0.6,2.6,44.4,253,722,1536,-2.4,-3.4,atest,4.2
2022-03-27 14:04:47,Pong,585,695,0.6,2.6,44.2,254,722,1536,-2.4,-3.4,atest,4
2022-03-27 14:04:47,Pong,601,688.8,0.6,2.6,44.5,255,722,1536,-2.3,-3.4,atest,4.1
2022-03-27 14:04:47,Pong,598.2,687.4,0.6,2.5,44,256,722,1536,-1.8,-3.4,atest,3.8
2022-03-27 14:04:47,Pong,601.6,694.4,0.6,2.5,44.2,257,722,1536,-2,-3.4,atest,4.1
2022-03-27 14:04:48,Pong,598.4,706.4,0.6,2.5,44.4,258,722,1536,-2.4,-3.5,atest,3.8
2022-03-27 14:04:48,Pong,229,682,0.6,2.6,44.3,259,722,1536,-3,-3,atest,3.9
2022-03-27 14:04:48,Pong,230.2,687.8,0.6,2.6,44.5,260,722,1536,-2.7,-3.1,atest,3.9
2022-03-27 14:04:48,Pong,226,679.2,0.6,2.5,44.3,261,722,1536,-2.7,-2.7,atest,4
2022-03-27 14:04:48,Pong,-6.6,708,0.6,2.5,44.5,262,722,1536,-2.8,-2.7,atest,3.9
2022-03-27 14:04:48,Pong,-23.4,680.8,0.6,2.5,44.4,263,722,1536,-2.9,-2.6,atest,4
2022-03-27 14:04:48,Pong,-289,619,0.5,2.5,44.6,264,722,1536,-2.4,-2.7,atest,3.9
2022-03-27 14:04:48,Pong,-331.8,608.2,0.5,2.4,44.4,265,722,1536,-2.5,-2.7,atest,3.7
2022-03-27 14:04:48,Pong,-326.6,597.6,0.6,2.4,44.5,266,722,1536,-2.2,-2.2,atest,3.7
2022-03-27 14:04:48,Pong,-330,577.6,0.6,2.5,44.5,267,722,1536,-2.3,-2.2,atest,3.7
2022-03-27 14:04:48,Pong,-347.4,533.8,0.5,2.7,44.6,268,722,1536,-3.3,-2.1,atest,3.6
2022-03-27 14:04:48,Pong,-357.8,515.6,0.5,2.8,44.9,269,722,1536,-2.4,-2,atest,3.7
2022-03-27 14:04:48,Pong,-365.4,492.6,0.5,2.8,44.9,270,722,1536,-2.7,-2,atest,3.5
2022-03-27 14:04:48,Pong,-367,490.8,0.5,2.8,44.9,271,722,1536,-2.6,-2.1,atest,3.6
2022-03-27 14:04:48,Pong,-351.4,494.2,0.5,2.8,45,272,722,1536,-2.6,-1.9,atest,3.6
2022-03-27 14:04:48,Pong,-340,488.2,0.5,2.9,44.8,273,722,1536,-3,-1.6,atest,3.6
2022-03-27 14:04:49,Pong,-335.4,466,0.5,2.9,44.7,274,722,1536,-3,-1.7,atest,3.6
2022-03-27 14:04:49,Pong,-341.8,454.2,0.5,2.9,44.8,275,722,1536,-3.3,-1.8,atest,3.7
2022-03-27 14:04:49,Pong,-354.6,443.2,0.5,2.9,44.6,276,722,1536,-3.5,-2,atest,3.8
2022-03-27 14:04:49,Pong,-364.8,450.6,0.5,2.9,44.6,277,722,1536,-3.2,-2.1,atest,3.7
2022-03-27 14:04:49,Pong,-368.6,457.8,0.6,2.9,44.8,278,722,1536,-2.8,-2.1,atest,3.7
2022-03-27 14:04:49,Pong,-373.2,458.6,0.5,2.9,44.5,279,722,1536,-3.1,-2.1,atest,3.7
2022-03-27 14:04:49,Pong,-377.8,465.6,0.5,2.9,44.6,280,722,1536,-2.9,-2,atest,3.8
2022-03-27 14:04:49,Pong,-382.2,479,0.5,2.9,44.6,281,722,1536,-2.6,-2,atest,3.8
2022-03-27 14:04:49,Pong,-385.8,481.2,0.5,2.8,44.5,282,722,1536,-2.6,-2,atest,3.7
2022-03-27 14:04:49,Pong,-389.6,478.8,0.6,2.9,44.8,283,722,1536,-2.9,-2.2,atest,3.7
2022-03-27 14:04:49,Pong,-390.4,474,0.5,2.8,44.5,284,722,1536,-2.8,-1.8,atest,3.7
2022-03-27 14:04:49,Pong,-391,475.2,0.5,2.8,44.6,285,722,1536,-2.7,-1.8,atest,3.7
2022-03-27 14:04:49,Pong,-359,482.2,0.5,2.8,44.6,286,722,1536,-2.7,-1.8,atest,3.7
2022-03-27 14:04:49,Pong,-366.8,481.8,0.5,2.8,44.6,287,722,1536,-2.9,-1.9,atest,3.7
2022-03-27 14:04:49,Pong,-296.4,490.8,0.5,2.8,44.5,288,722,1536,-2.8,-1.8,atest,3.8
2022-03-27 14:04:49,Pong,96,556,0.5,2.8,44.6,289,722,1536,-2.4,-2.1,atest,3.9
2022-03-27 14:04:49,Pong,113.4,542.2,0.5,2.7,44.4,290,722,1536,-2.8,-2.3,atest,3.8
2022-03-27 14:04:50,Pong,137.8,557,0.5,2.8,44.6,291,722,1536,-2.6,-2.2,atest,4.2
2022-03-27 14:04:50,Pong,170.8,548.4,0.5,2.7,44.5,292,722,1536,-2.5,-2.2,atest,4
2022-03-27 14:04:50,Pong,270.2,527.2,0.5,2.8,44.7,293,722,1536,-2.5,-2.4,atest,4.2
2022-03-27 14:04:50,Pong,322.2,517,0.5,2.7,44.5,294,722,1536,-2.3,-2.1,atest,3.8
2022-03-27 14:04:50,Pong,331.6,526.6,0.5,2.7,44.4,295,722,1536,-2.4,-2.2,atest,3.9
2022-03-27 14:04:50,Pong,310.4,535.4,0.5,2.6,44.2,296,722,1536,-1.9,-2.2,atest,3.8
2022-03-27 14:04:50,Pong,314.6,549,0.5,2.7,44.5,297,722,1536,-2.5,-2.5,atest,3.9
2022-03-27 14:04:50,Pong,328.6,562,0.5,2.7,44.7,298,722,1536,-2.7,-2.4,atest,4.1
2022-03-27 14:04:50,Pong,334.2,575.8,0.5,2.7,44.5,299,722,1536,-2.3,-2.4,atest,4
2022-03-27 14:04:50,Pong,355.6,590,0.5,2.7,44.7,300,722,1536,-2.2,-2.5,atest,4.1
2022-03-27 14:04:50,Pong,232,544.2,0.5,2.8,44.7,301,722,1536,-2.7,-2.3,atest,4
2022-03-27 14:04:50,Pong,356.6,589,0.5,2.7,44.6,302,722,1536,-2.4,-2.5,atest,3.7
2022-03-27 14:04:50,Pong,358.4,596,0.5,2.7,44.7,303,722,1536,-2.6,-2.4,atest,3.9
2022-03-27 14:04:50,Pong,358.6,600.6,0.5,2.7,44.7,304,722,1536,-2.6,-2.5,atest,4
2022-03-27 14:04:50,Pong,362.8,614,0.5,2.6,44.2,305,722,1536,-2.1,-2.4,atest,3.9
2022-03-27 14:04:50,Pong,378.8,608,0.5,2.6,44.3,306,722,1536,-2.4,-2.3,atest,3.9
2022-03-27 14:04:50,Pong,392,610,0.5,2.6,44.4,307,722,1536,-2.3,-2.4,atest,3.8
2022-03-27 14:04:50,Pong,396.6,615.4,0.5,2.6,44.4,308,722,1536,-2.4,-2.3,atest,3.8
2022-03-27 14:04:50,Pong,411,620.2,0.5,2.7,44.7,309,722,1536,-2.1,-2.4,atest,3.9
2022-03-27 14:04:51,Pong,425,617.4,0.5,2.7,44.4,310,722,1536,-2.1,-2.3,atest,3.9
2022-03-27 14:04:51,Pong,433.2,621.4,0.5,2.6,44.5,311,722,1536,-2.3,-2.7,atest,3.7
2022-03-27 14:04:51,Pong,436.8,630,0.5,2.6,44.5,312,722,1536,-2,-2.2,atest,3.8
2022-03-27 14:04:51,Pong,433.4,633.4,0.5,2.6,44.5,313,722,1536,-2.3,-2.6,atest,3.8
2022-03-27 14:04:51,Pong,471,641.8,0.5,2.6,44.4,314,722,1536,-2.1,-2.4,atest,3.6
2022-03-27 14:04:51,Pong,464.8,631.2,0.5,2.6,44.5,315,722,1536,-2.8,-2.5,atest,3.8
2022-03-27 14:04:51,Pong,760,631,0.5,2.7,44.6,316,722,1536,-2.8,-2.4,atest,3.9
2022-03-27 14:04:51,Pong,796.6,619.2,0.5,2.7,44.5,317,722,1536,-2.6,-2.5,atest,3.8
2022-03-27 14:04:51,Pong,1038,497,0.5,2.7,44.5,318,722,1536,-3.2,-2.7,atest,3.8
2022-03-27 14:04:51,Pong,1042.8,497,0.4,2.9,44.6,319,722,1536,-3.5,-2.9,atest,3.8
2022-03-27 14:04:51,Pong,1067.6,477,0.5,2.8,44.6,320,722,1536,-3.6,-2.8,atest,3.9
2022-03-27 14:04:52,Pong,1083.4,484.6,0.5,2.9,44.9,321,722,1536,-3.7,-2.9,atest,4.1
2022-03-27 14:04:52,Pong,1066.8,508.6,0.4,3,44.8,322,722,1536,-4,-3.3,atest,3.8
2022-03-27 14:04:52,Pong,1064.4,515.2,0.4,3,44.7,323,722,1536,-4.1,-3.2,atest,4.1
2022-03-27 14:04:52,Pong,1072.2,527.4,0.4,3,44.7,324,722,1536,-3.8,-3,atest,4.2
2022-03-27 14:04:52,Pong,1093.2,499,0.4,3.1,44.7,325,722,1536,-3.6,-2.9,atest,3.7
2022-03-27 14:04:52,Pong,1094.6,495.2,0.4,3.1,44.7,326,722,1536,-3.4,-2.8,atest,3.8
2022-03-27 14:04:52,Pong,1107,495,0.4,3.1,45,327,722,1536,-2.7,-2.8,atest,3.8
2022-03-27 14:04:52,Pong,1105,495.4,0.4,3.1,45,328,722,1536,-3.3,-2.9,atest,3.7
2022-03-27 14:04:52,Pong,1102.8,509.4,0.4,2.9,44.8,329,722,1536,-3.5,-2.9,atest,3.9
2022-03-27 14:04:52,Pong,1112.6,520.2,0.4,3,45,330,722,1536,-3.5,-2.7,atest,3.7
2022-03-27 14:04:52,Pong,1119.2,529,0.4,3.1,45,331,722,1536,-3.6,-2.6,atest,3.8
2022-03-27 14:04:52,Pong,1127.8,530.4,0.4,3,45,332,722,1536,-3.6,-2.6,atest,3.8
2022-03-27 14:04:52,Pong,1125,538.4,0.4,2.9,44.8,333,722,1536,-3.8,-2.6,atest,4
2022-03-27 14:04:52,Pong,1353,595,0.4,2.9,44.5,334,722,1536,-3.2,-2.2,atest,4.1
2022-03-27 14:04:52,Pong,1377.6,588,0.4,2.8,44.2,335,722,1536,-2.9,-2.1,atest,4
2022-03-27 14:04:52,Pong,1391.4,584.8,0.4,2.8,44.4,336,722,1536,-2.9,-2.1,atest,4
2022-03-27 14:04:52,Pong,1383,590.4,0.4,2.8,44.4,337,722,1536,-2.7,-2.5,atest,4.1
2022-03-27 14:04:52,Pong,1382,587.4,0.4,2.7,44.2,338,722,1536,-2.7,-2.4,atest,4
2022-03-27 14:04:52,Pong,1406,566.6,0.4,2.8,44.5,339,722,1536,-3,-2.3,atest,4.1
2022-03-27 14:04:53,Pong,1558.2,383,0.4,2.7,44.2,340,722,1536,-3,-2.8,atest,4
2022-03-27 14:04:53,Pong,1561.2,409,0.4,2.7,44.1,341,722,1536,-2.9,-2.7,atest,4.2
2022-03-27 14:04:53,Pong,1566.2,412,0.4,2.7,43.9,342,722,1536,-3.1,-2.7,atest,4.1
2022-03-27 14:04:53,Pong,1571,426.8,0.4,2.7,44.2,343,722,1536,-3.3,-2.9,atest,4.3
2022-03-27 14:04:53,Pong,1700.6,431.2,0.4,2.7,44.1,344,722,1536,-3.3,-3,atest,4.1
2022-03-27 14:04:53,Pong,1727.8,444.2,0.4,2.6,44.1,345,722,1536,-3.4,-2.8,atest,4.2
2022-03-27 14:04:53,Pong,1760.8,446.8,0.4,2.6,44,346,722,1536,-3.4,-2.7,atest,4.7
2022-03-27 14:04:53,Pong,1791,460.4,0.4,2.6,44,347,722,1536,-3.1,-2.8,atest,4.4
2022-03-27 14:04:53,Pong,1815,460.2,0.4,2.6,44.1,348,722,1536,-3.1,-3,atest,4.4
2022-03-27 14:04:53,Pong,1824.4,466.2,0.4,2.6,43.9,349,722,1536,-2.9,-2.8,atest,4.3
2022-03-27 14:04:53,Pong,1832.6,466.4,0.4,2.6,43.9,350,722,1536,-2.5,-3.1,atest,4.3
2022-03-27 14:04:53,Pong,1837.6,465.6,0.4,2.5,44.2,351,722,1536,-2.6,-3.1,atest,4.3
2022-03-27 14:04:53,Pong,1835.4,465.2,0.4,2.5,43.9,352,722,1536,-2.4,-2.9,atest,4.1
2022-03-27 14:04:53,Pong,1826.8,463,0.4,2.5,44.1,353,722,1536,-2.5,-3.1,atest,4.4
2022-03-27 14:04:53,Pong,1837.2,453.6,0.4,2.6,44.4,354,722,1536,-2.7,-3.1,atest,4.4
2022-03-27 14:04:53,Pong,1841.4,454.6,0.4,2.6,44.2,355,722,1536,-2.6,-2.7,atest,4.3
2022-03-27 14:04:53,Pong,1832,438.8,0.4,2.7,44.1,356,722,1536,-3,-2.8,atest,4.3
2022-03-27 14:04:53,Pong,1832,427.8,0.4,2.8,44.1,357,722,1536,-3.3,-2.8,atest,4.1
2022-03-27 14:04:54,Pong,1839.6,425.2,0.4,2.8,44.3,358,722,1536,-3,-2.8,atest,4.2
2022-03-27 14:04:54,Pong,1839.6,431,0.4,2.8,44.2,359,722,1536,-3.1,-2.9,atest,4
2022-03-27 14:04:54,Pong,1844.6,429.4,0.4,2.8,44.2,360,722,1536,-3.2,-2.9,atest,4.1
2022-03-27 14:04:54,Pong,1837.6,423,0.4,2.9,44,361,722,1536,-3.9,-2.8,atest,4.2
2022-03-27 14:04:54,Pong,1834.2,424.6,0.4,3,44.1,362,722,1536,-3.6,-3.1,atest,4.2
2022-03-27 14:04:54,Pong,1836.4,418.2,0.4,3,44.2,363,722,1536,-3.5,-2.9,atest,4.2
2022-03-27 14:04:54,Pong,1838.2,414.8,0.4,3.1,44.2,364,722,1536,-4.1,-2.6,atest,4.3
2022-03-27 14:04:54,Pong,1839.4,410,0.4,3.1,44.4,365,722,1536,-3.6,-2.4,atest,4.1
2022-03-27 14:04:54,Pong,1838.2,405.8,0.4,3.1,44.6,366,722,1536,-3.6,-2.4,atest,4.1
2022-03-27 14:04:54,Pong,1831,403.6,0.4,3.2,44.6,367,722,1536,-3.5,-2.7,atest,4.4
2022-03-27 14:04:54,Pong,1827.6,411.6,0.4,3.2,44.6,368,722,1536,-3.9,-2.5,atest,4
2022-03-27 14:04:54,Pong,1272,568,0.4,3.3,44.9,369,722,1536,-3.4,-2.7,atest,3.8
2022-03-27 14:04:54,Pong,1006,577,0.4,3.4,45,370,722,1536,-4,-2.6,atest,3.8
2022-03-27 14:04:54,Pong,723,568,0.4,3.3,45,371,722,1536,-4,-2.7,atest,3.9
2022-03-27 14:04:54,Pong,556,483,0.4,3.3,44.9,372,722,1536,-3.5,-2.4,atest,3.8
2022-03-27 14:04:54,Pong,539.4,486.4,0.5,3.3,44.9,373,722,1536,-4,-2.5,atest,4.1
2022-03-27 14:04:54,Pong,525.8,506.8,0.4,3.3,45.1,374,722,1536,-3.8,-2.7,atest,4.1
2022-03-27 14:04:54,Pong,248,651,0.4,3.3,45.1,375,722,1536,-3.5,-2.3,atest,3.7
2022-03-27 14:04:55,Pong,17.6,684.6,0.5,3.2,44.7,376,722,1536,-3.4,-2,atest,3.9
2022-03-27 14:04:55,Pong,26,705,0.5,3.3,45.1,377,722,1536,-3.5,-2.2,atest,3.8
2022-03-27 14:04:55,Pong,-200,691,0.5,3.2,44.6,378,722,1536,-3.4,-1.9,atest,3.8
2022-03-27 14:04:55,Pong,-21.2,690,0.4,3,44.8,379,722,1536,-3.4,-2.2,atest,3.8
2022-03-27 14:04:55,Pong,-176.4,677.8,0.5,3.1,44.7,380,722,1536,-3.5,-1.8,atest,3.6
2022-03-27 14:04:55,Pong,-222.8,645,0.5,3,44.5,381,722,1536,-3.3,-1.6,atest,3.8
2022-03-27 14:04:55,Pong,-311.8,564,0.5,3,44.6,382,722,1536,-3.5,-2.1,atest,3.6
2022-03-27 14:04:55,Pong,-345.8,562,0.5,3,44.4,383,722,1536,-3.2,-2.1,atest,3.7
2022-03-27 14:04:55,Pong,-358.6,560.8,0.5,3,44.7,384,722,1536,-3.5,-2.1,atest,3.8
2022-03-27 14:04:55,Pong,-361.2,560.4,0.5,2.9,44.4,385,722,1536,-3.1,-2,atest,3.6
2022-03-27 14:04:55,Pong,-355.2,567.8,0.5,3,44.6,386,722,1536,-3,-1.9,atest,3.7
2022-03-27 14:04:55,Pong,-348.4,574.4,0.5,2.8,44.1,387,722,1536,-2.8,-1.7,atest,3.8
2022-03-27 14:04:55,Pong,-348,574.2,0.5,2.8,44.2,388,722,1536,-3.4,-1.8,atest,3.8
2022-03-27 14:04:55,Pong,-347.6,576.8,0.5,2.8,44.5,389,722,1536,-3.2,-1.9,atest,3.8
2022-03-27 14:04:55,Pong,-331.2,580,0.5,2.8,44.5,390,722,1536,-2.9,-1.8,atest,3.7
2022-03-27 14:04:55,Pong,-328.2,596.2,0.5,2.8,44.5,391,722,1536,-2.8,-1.8,atest,3.7
2022-03-27 14:04:55,Pong,-315.8,611.6,0.5,2.8,44.5,392,722,1536,-2.4,-1.8,atest,3.8
2022-03-27 14:04:55,Pong,-310.2,611.2,0.5,2.7,44.2,393,722,1536,-2.6,-1.7,atest,3.8
2022-03-27 14:04:55,Pong,-310.6,595.6,0.6,2.6,44.2,394,722,1536,-2.7,-1.6,atest,3.7
2022-03-27 14:04:56,Pong,-317.8,591,0.5,2.6,44.3,395,722,1536,-2.3,-1.7,atest,3.8
2022-03-27 14:04:56,Pong,-319.4,585.6,0.5,2.6,44.3,396,722,1536,-2.6,-1.8,atest,3.8
2022-03-27 14:04:56,Pong,-314,588.8,0.5,2.6,44.1,397,722,1536,-2.8,-1.7,atest,3.9
2022-03-27 14:04:56,Pong,-312.2,591.8,0.5,2.6,44.2,398,722,1536,-2.8,-2,atest,3.9
2022-03-27 14:04:56,Pong,-322.4,601.8,0.5,2.6,44.2,399,722,1536,-2.8,-1.8,atest,4.1
2022-03-27 14:04:56,Pong,-322.8,600.4,0.5,2.6,44.2,400,722,1536,-3,-1.8,atest,3.8
2022-03-27 14:04:56,Pong,-315.4,596.2,0.5,2.6,44.2,401,722,1536,-2.6,-1.8,atest,3.8
2022-03-27 14:04:56,Pong,-304.4,590,0.5,2.6,44.2,402,722,1536,-2.5,-1.6,atest,3.9
2022-03-27 14:04:56,Pong,-306.4,598.2,0.5,2.6,44.2,403,722,1536,-2.6,-1.9,atest,3.8
2022-03-27 14:04:56,Pong,-304,614.8,0.5,2.7,44.3,404,722,1536,-2.7,-1.9,atest,3.9
2022-03-27 14:04:56,Pong,-305.6,622,0.5,2.7,44.4,405,722,1536,-2.9,-2.1,atest,4.2
2022-03-27 14:04:56,Pong,-302.6,632.4,0.5,3,44.5,406,722,1536,-2.5,-1.9,atest,3.8
2022-03-27 14:04:56,Pong,-276.4,644.8,0.5,2.8,44.3,407,722,1536,-3.3,-2.1,atest,3.7
2022-03-27 14:04:56,Pong,-16.2,683.2,0.5,2.8,44.2,408,722,1536,-3.3,-2.2,atest,3.9
2022-03-27 14:04:56,Pong,-5,682.4,0.5,2.9,44.4,409,722,1536,-3.2,-2.3,atest,3.8
2022-03-27 14:04:56,Pong,-1.2,686.4,0.5,2.9,44.4,410,722,1536,-3.4,-2.1,atest,3.9
2022-03-27 14:04:56,Pong,17.8,711,0.4,2.9,44.4,411,722,1536,-2.9,-2.1,atest,3.8
2022-03-27 14:04:56,Pong,115.6,728,0.5,3,44.7,412,722,1536,-3.2,-2.6,atest,3.8
2022-03-27 14:04:56,Pong,176.4,744,0.5,3.1,44.9,413,722,1536,-3.5,-2.4,atest,3.8
2022-03-27 14:04:56,Pong,200,754.6,0.5,3.1,44.9,414,722,1536,-3.9,-2.4,atest,3.7
2022-03-27 14:04:57,Pong,199,755.6,0.5,3.2,44.9,415,722,1536,-4,-2.6,atest,3.7
2022-03-27 14:04:57,Pong,190.6,760.8,0.5,3.2,44.9,416,722,1536,-4,-2.4,atest,3.8
2022-03-27 14:04:57,Pong,189.2,765.2,0.5,3.2,44.8,417,722,1536,-3.8,-2.5,atest,3.7
2022-03-27 14:04:57,Pong,189.6,768,0.4,3.3,45.1,418,722,1536,-4,-2.3,atest,3.8
2022-03-27 14:04:57,Pong,183.2,777.2,0.4,3.4,45.1,419,722,1536,-3.7,-2.1,atest,3.8
2022-03-27 14:04:57,Pong,171.6,773.6,0.4,3.4,45.1,420,722,1536,-3.8,-2.3,atest,3.9
2022-03-27 14:04:57,Pong,164.4,779.2,0.5,3.4,45,421,722,1536,-4.1,-2.2,atest,3.9
2022-03-27 14:04:57,Pong,164,787.2,0.5,3.4,45,422,722,1536,-3.6,-2,atest,4.1
2022-03-27 14:04:57,Pong,147.6,790,0.4,3.4,45,423,722,1536,-3.7,-2.3,atest,3.9
2022-03-27 14:04:57,Pong,150.4,795.8,0.4,3.3,45,424,722,1536,-3.3,-2.2,atest,3.8
2022-03-27 14:04:57,Pong,150,794.2,0.4,3.3,44.8,425,722,1536,-3.5,-2.1,atest,3.7
2022-03-27 14:04:57,Pong,151.8,793.4,0.4,3.3,44.8,426,722,1536,-3.4,-2,atest,3.7
2022-03-27 14:04:57,Pong,159.8,783,0.5,3.2,44.8,427,722,1536,-3.4,-1.9,atest,3.8
2022-03-27 14:04:57,Pong,148.8,779.4,0.5,3,44.5,428,722,1536,-3.3,-1.7,atest,3.9
2022-03-27 14:04:57,Pong,163.2,786,0.5,3.2,44.8,429,722,1536,-2.9,-1.8,atest,3.9
2022-03-27 14:04:57,Pong,163,785.4,0.5,3.2,44.8,430,722,1536,-2.9,-1.9,atest,3.8
2022-03-27 14:04:57,Pong,165.8,786.2,0.5,3.1,44.7,431,722,1536,-3.2,-1.9,atest,3.7
2022-03-27 14:04:57,Pong,172,793.2,0.5,3.1,44.9,432,722,1536,-3,-1.7,atest,3.9
2022-03-27 14:04:57,Pong,177.4,786.4,0.5,3.1,45,433,722,1536,-3,-1.8,atest,3.7
2022-03-27 14:04:57,Pong,189.2,790.4,0.5,3.1,44.9,434,722,1536,-2.6,-1.7,atest,3.9
2022-03-27 14:04:57,Pong,198.2,781.8,0.5,3,44.4,435,722,1536,-2.7,-1.6,atest,3.6
2022-03-27 14:04:57,Pong,193,777.8,0.5,2.9,44.6,436,722,1536,-3,-2,atest,3.8
2022-03-27 14:04:58,Pong,192.6,781.8,0.5,2.9,44.6,437,722,1536,-2.8,-2.2,atest,3.8
2022-03-27 14:04:58,Pong,191.4,781.8,0.5,2.9,44.6,438,722,1536,-2.5,-2.1,atest,3.8
2022-03-27 14:04:58,Pong,187,781.2,0.5,2.9,44.6,439,722,1536,-2.6,-2,atest,3.7
2022-03-27 14:04:58,Pong,440,703,0.4,2.9,44.4,440,722,1536,-2.5,-2,atest,4.1
2022-03-27 14:04:58,Pong,762,625,0.4,2.9,44.8,441,722,1536,-2.2,-2.3,atest,3.8
2022-03-27 14:04:58,Pong,996,641,0.4,2.8,44.5,442,722,1536,-2.2,-2.3,atest,3.6
2022-03-27 14:04:58,Pong,1052.8,583.2,0.4,2.8,44.4,443,722,1536,-2.4,-2.2,atest,3.7
2022-03-27 14:04:58,Pong,1054.6,577.2,0.4,2.8,44.4,444,722,1536,-1.9,-2.5,atest,3.7
2022-03-27 14:04:58,Pong,1076.4,574.4,0.4,2.7,44.4,445,722,1536,-2.5,-2.7,atest,3.8
2022-03-27 14:04:58,Pong,1127,596.8,0.4,2.7,44.5,446,722,1536,-2.7,-2.4,atest,4.3
2022-03-27 14:04:58,Pong,1169,640.4,0.4,2.7,44.4,447,722,1536,-2.5,-2.3,atest,4.1
2022-03-27 14:04:58,Pong,1175.2,635.2,0.4,2.7,44.5,448,722,1536,-2.6,-2.8,atest,4.2
2022-03-27 14:04:58,Pong,1176,612.8,0.4,2.7,44.1,449,722,1536,-2.2,-2.7,atest,4.3
2022-03-27 14:04:58,Pong,1189,615.2,0.4,2.7,44.2,450,722,1536,-2.3,-2.6,atest,4.1
2022-03-27 14:04:58,Pong,1160.8,630.2,0.5,2.9,44.4,451,722,1536,-2.4,-2.4,atest,3.9
2022-03-27 14:04:58,Pong,1173.4,632,0.4,2.7,44.3,452,722,1536,-2,-2.5,atest,4.2
2022-03-27 14:04:58,Pong,1178.4,638.8,0.4,2.6,44.3,453,722,1536,-1.9,-2.4,atest,4
2022-03-27 14:04:58,Pong,1174.4,635,0.4,2.6,44.2,454,722,1536,-2.1,-2.4,atest,4
2022-03-27 14:04:58,Pong,1160.8,634.6,0.4,2.6,44.2,455,722,1536,-2.1,-2.7,atest,4
2022-03-27 14:04:58,Pong,1154.2,633.6,0.4,2.6,44.3,456,722,1536,-1.9,-2.7,atest,3.7
2022-03-27 14:04:59,Pong,1141.8,625.2,0.4,2.7,44.5,457,722,1536,-2.5,-2.8,atest,3.8
2022-03-27 14:04:59,Pong,1139,627.8,0.4,2.7,44.7,458,722,1536,-2.6,-2.9,atest,3.7
2022-03-27 14:04:59,Pong,1138.8,629.8,0.4,2.7,44.4,459,722,1536,-2.1,-2.6,atest,3.7
2022-03-27 14:04:59,Pong,1143.2,634,0.4,2.7,44.7,460,722,1536,-2.5,-2.5,atest,4
2022-03-27 14:04:59,Pong,1143.2,634.8,0.4,2.8,44.5,461,722,1536,-2.5,-2.5,atest,3.7
2022-03-27 14:04:59,Pong,1132.4,638,0.4,2.8,44.6,462,722,1536,-2.5,-2.7,atest,4
2022-03-27 14:04:59,Pong,1133.6,636.6,0.4,2.8,44.6,463,722,1536,-2.8,-2.7,atest,3.8
2022-03-27 14:04:59,Pong,1145,632.8,0.4,3,44.4,464,722,1536,-2.6,-2.5,atest,4.1
2022-03-27 14:04:59,Pong,1137.4,635.4,0.4,3,44.6,465,722,1536,-3,-2.7,atest,4
2022-03-27 14:04:59,Pong,1135.6,628,0.4,3,44.6,466,722,1536,-3.1,-2.7,atest,3.8
2022-03-27 14:04:59,Pong,1135.8,621,0.4,3,44.7,467,722,1536,-3.1,-2.4,atest,4.1
2022-03-27 14:04:59,Pong,1134.2,621.8,0.4,3.1,44.7,468,722,1536,-2.8,-2.5,atest,3.7
2022-03-27 14:04:59,Pong,1130.8,615.2,0.4,3.3,44.8,469,722,1536,-3.4,-2.6,atest,3.7
2022-03-27 14:04:59,Pong,1139,617.8,0.4,3.3,44.7,470,722,1536,-3.5,-2.3,atest,4.1
2022-03-27 14:04:59,Pong,1138.8,626.2,0.4,3.3,44.7,471,722,1536,-3.5,-2.5,atest,4
2022-03-27 14:04:59,Pong,1145,629.6,0.4,3.3,44.8,472,722,1536,-3.1,-2.4,atest,3.5
2022-03-27 14:04:59,Pong,1146.4,625.6,0.4,3.4,44.8,473,722,1536,-3.6,-2.6,atest,4.1
2022-03-27 14:04:59,Pong,1491,593,0.4,3.4,44.8,474,722,1536,-4,-2.7,atest,4
2022-03-27 14:04:59,Pong,1499.2,607.2,0.4,3.4,44.7,475,722,1536,-3.6,-2.6,atest,3.8
2022-03-27 14:04:59,Pong,1526.8,615.8,0.4,3.4,44.8,476,722,1536,-3.6,-2.6,atest,4
2022-03-27 14:04:59,Pong,1552.2,613.2,0.4,3.4,44.9,477,722,1536,-3.7,-2.6,atest,4.1
2022-03-27 14:04:59,Pong,1568.2,614.8,0.4,3.3,44.5,478,722,1536,-3.7,-2.7,atest,4.2
2022-03-27 14:05:00,Pong,1576.6,609.6,0.4,3.3,44.5,479,722,1536,-3.6,-2.3,atest,4.2
2022-03-27 14:05:00,Pong,1739.6,613,0.4,3.3,44.3,480,722,1536,-3.5,-2.5,atest,4.1
2022-03-27 14:05:00,Pong,1762.4,609.4,0.4,3.3,44.5,481,722,1536,-3.5,-2.4,atest,4.2
2022-03-27 14:05:00,Pong,1780.2,614.4,0.4,3.2,44.4,482,722,1536,-3.6,-2.5,atest,4.3
2022-03-27 14:05:00,Pong,1807,614.4,0.4,3.2,44.4,483,722,1536,-3.5,-2.7,atest,4.4
2022-03-27 14:05:00,Pong,1844.4,618.6,0.4,3.2,44.5,484,722,1536,-3.2,-2.1,atest,4.3
2022-03-27 14:05:00,Pong,1836.6,618.6,0.4,3.2,44.4,485,722,1536,-3.5,-2.4,atest,4.3
2022-03-27 14:05:00,Pong,1844.6,614.8,0.4,3.1,44.3,486,722,1536,-3.3,-2.4,atest,4.2
2022-03-27 14:05:00,Pong,1843.2,617.8,0.4,3.1,44.4,487,722,1536,-2.8,-2.4,atest,4.2
2022-03-27 14:05:00,Pong,1846,615,0.4,3,44.2,488,722,1536,-2.8,-2.5,atest,4.4
2022-03-27 14:05:00,Pong,1839,611.4,0.4,3,44.1,489,722,1536,-3.3,-2.8,atest,4.1
2022-03-27 14:05:00,Pong,1820.2,613.2,0.4,2.8,44.2,490,722,1536,-3.1,-2.4,atest,4.1
2022-03-27 14:05:00,Pong,1843.8,612.2,0.4,3,44.1,491,722,1536,-3,-2.2,atest,4.3
2022-03-27 14:05:00,Pong,1851.8,615.6,0.4,2.9,44.3,492,722,1536,-3.2,-2.4,atest,4.1
2022-03-27 14:05:00,Pong,1861.2,620.8,0.4,2.9,44.1,493,722,1536,-2.9,-2.3,atest,4
2022-03-27 14:05:00,Pong,1867.2,616.6,0.4,2.9,44.2,494,722,1536,-2.8,-2.2,atest,4.2
2022-03-27 14:05:00,Pong,1868.6,616.6,0.4,2.9,44.2,495,722,1536,-2.6,-2.3,atest,4.3
2022-03-27 14:05:00,Pong,1860,600.6,0.4,2.8,44.2,496,722,1536,-2.7,-2.7,atest,4.5
2022-03-27 14:05:00,Pong,1859.4,597.4,0.4,2.8,43.9,497,722,1536,-2.7,-2.6,atest,4.2
2022-03-27 14:05:00,Pong,1858.8,600.6,0.4,2.8,44.2,498,722,1536,-2.5,-2.5,atest,4.4
2022-03-27 14:05:01,Pong,1857.6,602.6,0.4,2.8,44,499,722,1536,-2.8,-2.4,atest,4.3
2022-03-27 14:05:01,Pong,1862,607.2,0.4,2.8,43.8,500,722,1536,-2.5,-2.1,atest,4.2
2022-03-27 14:05:01,Pong,1864.8,607,0.4,2.8,44,501,722,1536,-2.4,-2.4,atest,4.2
2022-03-27 14:05:01,Pong,1869.4,606.6,0.4,2.8,43.9,502,722,1536,-2.8,-2.2,atest,4.3
2022-03-27 14:05:01,Pong,1870.4,609.4,0.4,2.8,44,503,722,1536,-2.6,-2.4,atest,4.3
2022-03-27 14:05:01,Pong,1859.8,610.2,0.4,2.8,44,504,722,1536,-2.5,-2.7,atest,4.3
2022-03-27 14:05:01,Pong,1853.2,611,0.4,2.8,43.9,505,722,1536,-2,-2.6,atest,4.3
2022-03-27 14:05:01,Pong,753,683,0.4,2.8,44.4,506,722,1536,-2.6,-2.1,atest,3.7
2022-03-27 14:05:01,Pong,-25.6,748,0.5,2.8,44.4,507,722,1536,-2.6,-1.9,atest,3.8
2022-03-27 14:05:01,Pong,-163.8,744.4,0.5,2.7,44.2,508,722,1536,-2,-1.7,atest,3.8
2022-03-27 14:05:01,Pong,-206.8,729,0.5,2.7,44.2,509,722,1536,-2,-1.8,atest,3.8
2022-03-27 14:05:01,Pong,-243.4,706.6,0.5,2.7,44.2,510,722,1536,-2.3,-1.7,atest,3.6
2022-03-27 14:05:01,Pong,-250,713.8,0.5,2.8,44.3,511,722,1536,-2.2,-1.6,atest,3.9
2022-03-27 14:05:01,Pong,-247.6,716,0.5,2.7,44.2,512,722,1536,-1.8,-1.6,atest,3.6
2022-03-27 14:05:01,Pong,-247.6,711.2,0.5,2.7,44.2,513,722,1536,-2.2,-1.7,atest,3.7
2022-03-27 14:05:01,Pong,-250,713.2,0.5,2.7,44.2,514,722,1536,-2.1,-1.6,atest,3.6
2022-03-27 14:05:01,Pong,-188.4,706.8,0.4,2.8,44.3,515,722,1536,-2,-1.9,atest,3.9
2022-03-27 14:05:01,Pong,-239.2,708.2,0.5,2.7,44.2,516,722,1536,-2,-1.7,atest,3.6
2022-03-27 14:05:01,Pong,-243.6,713.8,0.5,2.7,44.2,517,722,1536,-1.8,-1.6,atest,3.6
2022-03-27 14:05:01,Pong,-249.6,717.4,0.5,2.7,44.2,518,722,1536,-2.1,-1.8,atest,3.8
2022-03-27 14:05:01,Pong,-250.4,714.8,0.5,2.7,44,519,722,1536,-2,-1.4,atest,3.7
2022-03-27 14:05:02,Pong,-237.6,679,0.5,2.7,44.2,520,722,1536,-2.2,-1.8,atest,3.6
2022-03-27 14:05:02,Pong,-235,704.2,0.4,2.8,44.3,521,722,1536,-2.3,-1.7,atest,3.7
2022-03-27 14:05:02,Pong,-233.4,706.8,0.5,2.8,44.3,522,722,1536,-1.9,-1.7,atest,3.5
2022-03-27 14:05:02,Pong,-233.8,710.8,0.5,2.8,44.4,523,722,1536,-1.9,-1.6,atest,3.4
2022-03-27 14:05:02,Pong,-221.8,711.2,0.5,2.8,44.5,524,722,1536,-2,-1.5,atest,3.2
2022-03-27 14:05:02,Pong,-218.4,696.2,0.5,2.9,44.3,525,722,1536,-2,-1.5,atest,3.5
2022-03-27 14:05:02,Pong,-215,685.6,0.5,2.9,44.6,526,722,1536,-2,-1.9,atest,3.5
2022-03-27 14:05:02,Pong,-208,684.2,0.5,3,44.5,527,722,1536,-2.5,-1.9,atest,3.4
2022-03-27 14:05:02,Pong,-217.2,682.4,0.5,3,44.5,528,722,1536,-2.5,-1.9,atest,3.3
2022-03-27 14:05:02,Pong,-203.2,678.8,0.5,3.1,44.5,529,722,1536,-3,-1.6,atest,3.6
2022-03-27 14:05:02,Pong,-207,676.2,0.5,3.2,44.5,530,722,1536,-3.7,-1.8,atest,3.5
2022-03-27 14:05:02,Pong,-203.6,683.4,0.4,3.3,44.8,531,722,1536,-3,-1.8,atest,3.7
2022-03-27 14:05:02,Pong,-200.8,682.4,0.5,3.3,44.7,532,722,1536,-3.2,-2,atest,3.5
2022-03-27 14:05:02,Pong,-205.6,687.2,0.5,3.3,44.8,533,722,1536,-3.6,-1.6,atest,3.7
2022-03-27 14:05:02,Pong,-210.4,689.2,0.5,3.3,44.7,534,722,1536,-3,-1.6,atest,3.5
2022-03-27 14:05:02,Pong,-217.4,685.2,0.5,3.4,44.6,535,722,1536,-3.7,-1.7,atest,3.6
2022-03-27 14:05:02,Pong,-219.8,682.2,0.5,3.4,45,536,722,1536,-3.7,-1.7,atest,3.3
2022-03-27 14:05:02,Pong,-231,679.6,0.5,3.4,44.9,537,722,1536,-3.8,-2,atest,3.7
2022-03-27 14:05:02,Pong,-226.6,680.6,0.5,3.4,45.1,538,722,1536,-3.8,-1.8,atest,3.6
2022-03-27 14:05:02,Pong,-222,680.8,0.5,3.4,44.8,539,722,1536,-3.7,-1.9,atest,3.6
2022-03-27 14:05:02,Pong,-227.6,688.6,0.5,3.4,44.9,540,722,1536,-3.6,-1.9,atest,3.5
2022-03-27 14:05:02,Pong,-217.2,696.4,0.5,3.4,44.9,541,722,1536,-3.4,-1.8,atest,3.4
2022-03-27 14:05:03,Pong,-220.4,702.2,0.5,3.4,44.8,542,722,1536,-3.4,-2,atest,3.6
2022-03-27 14:05:03,Pong,-218,712.4,0.4,3.4,45,543,722,1536,-3.3,-2,atest,3.5
2022-03-27 14:05:03,Pong,-208,715.4,0.5,3.4,45,544,722,1536,-3.4,-2,atest,3.2
2022-03-27 14:05:03,Pong,-205.6,729.2,0.5,3.4,45,545,722,1536,-3.4,-1.9,atest,3.5
2022-03-27 14:05:03,Pong,-186.6,759,0.4,3.3,44.9,546,722,1536,-3.4,-1.8,atest,3.6
2022-03-27 14:05:03,Pong,-181,791,0.5,3.3,44.8,547,722,1536,-3,-1.7,atest,3.6
2022-03-27 14:05:03,Pong,-175.6,817.8,0.4,3.3,44.8,548,722,1536,-3,-1.7,atest,3.5
2022-03-27 14:05:03,Pong,-180.8,824.4,0.4,3.3,44.9,549,722,1536,-3,-1.9,atest,3.8
2022-03-27 14:05:03,Pong,-1.4,875,0.4,3.1,44.6,550,722,1536,-2.8,-1.8,atest,3.6
2022-03-27 14:05:03,Pong,0.4,870.4,0.4,3,44.5,551,722,1536,-2.7,-1.9,atest,3.5
2022-03-27 14:05:03,Pong,43.8,864.2,0.5,3,44.3,552,722,1536,-2.3,-1.6,atest,3.6
2022-03-27 14:05:03,Pong,57.6,866,0.4,3,44.4,553,722,1536,-2.8,-1.9,atest,3.8
2022-03-27 14:05:03,Pong,115,861.8,0.4,3,44.4,554,722,1536,-2.8,-2.2,atest,3.8
2022-03-27 14:05:03,Pong,140.4,860.8,0.4,3,44.4,555,722,1536,-2.5,-1.9,atest,3.6
2022-03-27 14:05:03,Pong,142.2,859,0.5,2.9,44.1,556,722,1536,-2.5,-2,atest,3.7
2022-03-27 14:05:03,Pong,153.4,853,0.4,2.9,44.1,557,722,1536,-2.3,-1.7,atest,3.6
2022-03-27 14:05:03,Pong,144.4,853.8,0.4,2.9,44.3,558,722,1536,-2.3,-1.6,atest,3.6
2022-03-27 14:05:03,Pong,159.8,849.2,0.4,2.9,44.5,559,722,1536,-2.5,-2,atest,3.8
2022-03-27 14:05:03,Pong,176,858.2,0.4,2.9,44.2,560,722,1536,-2,-1.8,atest,3.7
2022-03-27 14:05:03,Pong,200.6,852.6,0.4,2.9,44.4,561,722,1536,-2.2,-2,atest,3.7
2022-03-27 14:05:04,Pong,208.4,851.2,0.4,2.9,44.4,562,722,1536,-2.3,-2.1,atest,3.6
2022-03-27 14:05:04,Pong,214.8,855,0.4,2.9,44.5,563,722,1536,-2.3,-2.2,atest,3.7
2022-03-27 14:05:04,Pong,223.4,849.6,0.4,2.8,44.4,564,722,1536,-1.9,-2.1,atest,3.6
2022-03-27 14:05:04,Pong,227.8,850,0.4,2.8,44.3,565,722,1536,-2.1,-2,atest,3.8
2022-03-27 14:05:04,Pong,224.2,848,0.5,2.7,44.3,566,722,1536,-2.2,-2.1,atest,3.9
2022-03-27 14:05:04,Pong,225.4,845.4,0.5,2.7,44.1,567,722,1536,-2.4,-2.4,atest,3.9
2022-03-27 14:05:04,Pong,231.4,838.8,0.5,2.7,44.3,568,722,1536,-2.1,-2.3,atest,3.8
2022-03-27 14:05:04,Pong,235,836.6,0.5,2.7,44.1,569,722,1536,-2,-2.3,atest,3.8
2022-03-27 14:05:04,Pong,244,835.4,0.5,2.7,44.1,570,722,1536,-2.1,-2.2,atest,3.8
2022-03-27 14:05:04,Pong,255.8,831.6,0.5,2.7,44.1,571,722,1536,-2,-2.2,atest,3.7
2022-03-27 14:05:04,Pong,256.4,835.6,0.5,2.7,44.1,572,722,1536,-1.8,-2.1,atest,3.8
2022-03-27 14:05:04,Pong,263,829.2,0.5,2.7,44.1,573,722,1536,-2,-2.1,atest,3.8
2022-03-27 14:05:04,Pong,267.4,821.2,0.5,2.7,44.3,574,722,1536,-2.3,-2.4,atest,3.8
2022-03-27 14:05:04,Pong,263.6,826,0.5,2.7,44.3,575,722,1536,-2.3,-2.2,atest,3.7
2022-03-27 14:05:04,Pong,266.6,819,0.5,2.7,43.9,576,722,1536,-2.4,-2.1,atest,3.8
2022-03-27 14:05:04,Pong,256.8,813.4,0.5,2.7,44.3,577,722,1536,-2.6,-2.2,atest,4.1
2022-03-27 14:05:04,Pong,250,816.4,0.5,2.8,44.3,578,722,1536,-2.2,-2.4,atest,3.9
2022-03-27 14:05:04,Pong,251.2,806,0.5,2.8,44.1,579,722,1536,-2.2,-2,atest,3.8
2022-03-27 14:05:04,Pong,252.2,805,0.5,2.9,44.3,580,722,1536,-2.4,-2,atest,3.7
2022-03-27 14:05:04,Pong,535,730,0.5,2.9,44.3,581,722,1536,-2.6,-2.3,atest,3.7
2022-03-27 14:05:04,Pong,574,729.8,0.4,2.9,44.3,582,722,1536,-2.6,-2.2,atest,3.8
2022-03-27 14:05:05,Pong,605.8,730,0.4,3,44.5,583,722,1536,-3.4,-2.4,atest,3.7
2022-03-27 14:05:05,Pong,614.6,735.8,0.4,3.1,44.5,584,722,1536,-3,-2.4,atest,3.8
2022-03-27 14:05:05,Pong,887,746,0.4,3.1,44.3,585,722,1536,-3.5,-2.5,atest,3.8
2022-03-27 14:05:05,Pong,937,774.6,0.4,3.2,44.6,586,722,1536,-3.1,-2.5,atest,3.7
2022-03-27 14:05:05,Pong,968.2,772.6,0.4,3.2,44.8,587,722,1536,-3.3,-2.4,atest,3.7
2022-03-27 14:05:05,Pong,974.8,767.4,0.4,3.2,44.6,588,722,1536,-3.3,-2.6,atest,3.7
2022-03-27 14:05:05,Pong,984.6,772.6,0.4,3.3,44.7,589,722,1536,-3.6,-2.4,atest,3.8
2022-03-27 14:05:05,Pong,1008.2,774.2,0.3,3.3,44.6,590,722,1536,-3.5,-2.3,atest,3.6
2022-03-27 14:05:05,Pong,1015.4,778.4,0.4,3.4,44.7,591,722,1536,-3.4,-2.2,atest,3.6
2022-03-27 14:05:05,Pong,1019.8,786.8,0.4,3.4,44.8,592,722,1536,-3.5,-2.6,atest,3.7
2022-03-27 14:05:05,Pong,1025.8,792.8,0.4,3.4,44.7,593,722,1536,-3.4,-2.3,atest,3.9
2022-03-27 14:05:05,Pong,1034.4,789.2,0.4,3.4,44.5,594,722,1536,-3.4,-2.2,atest,3.7
2022-03-27 14:05:05,Pong,1038.6,788.2,0.4,3.4,44.5,595,722,1536,-3.4,-2.2,atest,3.8
2022-03-27 14:05:05,Pong,1044.8,799.4,0.4,3.3,44.6,596,722,1536,-2.9,-2.2,atest,3.7
2022-03-27 14:05:05,Pong,1042.8,794.2,0.4,3.2,44.7,597,722,1536,-2.8,-2.4,atest,3.7
2022-03-27 14:05:05,Pong,1034.8,792,0.4,3.2,44.7,598,722,1536,-3.2,-2.6,atest,3.7
2022-03-27 14:05:05,Pong,1040.2,794.6,0.4,3.2,44.6,599,722,1536,-3.1,-2.1,atest,3.8
2022-03-27 14:05:05,Pong,1042,799.4,0.3,3.2,44.6,600,722,1536,-2.9,-2.4,atest,3.7
2022-03-27 14:05:05,Pong,1048.2,804.8,0.4,3.2,44.9,601,722,1536,-2.8,-2.5,atest,3.6
2022-03-27 14:05:05,Pong,1050.8,810.4,0.4,3.1,44.5,602,722,1536,-2.6,-2.4,atest,3.7
2022-03-27 14:05:05,Pong,1051.6,806,0.3,3.1,44.4,603,722,1536,-2.7,-2.2,atest,3.7
2022-03-27 14:05:05,Pong,1053,808.2,0.4,3.1,44.4,604,722,1536,-2.7,-2.3,atest,3.7
2022-03-27 14:05:06,Pong,1050.2,808.4,0.4,3.1,44.4,605,722,1536,-2.7,-2.4,atest,3.8
2022-03-27 14:05:06,Pong,1050,802.8,0.4,3.1,44.4,606,722,1536,-2.3,-2.2,atest,3.7
2022-03-27 14:05:06,Pong,1045.6,800.6,0.4,3,44.3,607,722,1536,-3,-2.2,atest,3.7
2022-03-27 14:05:06,Pong,1033.4,809.6,0.4,3,44.3,608,722,1536,-2.6,-2.6,atest,3.8
2022-03-27 14:05:06,Pong,1034.6,806.4,0.4,3,44.3,609,722,1536,-2.4,-2.7,atest,3.7
2022-03-27 14:05:06,Pong,1037.4,807.6,0.4,3,44.2,610,722,1536,-2.4,-2.4,atest,3.7
2022-03-27 14:05:06,Pong,1043,806.2,0.4,2.9,44.3,611,722,1536,-2.4,-2.2,atest,3.7
2022-03-27 14:05:06,Pong,1047,806.2,0.4,2.8,44.5,612,722,1536,-2.4,-2.2,atest,3.8
2022-03-27 14:05:06,Pong,1042.8,803.6,0.4,2.8,44.3,613,722,1536,-2.5,-2.2,atest,3.9
2022-03-27 14:05:06,Pong,1295,800,0.4,2.8,44.4,614,722,1536,-2.8,-2.5,atest,4.1
2022-03-27 14:05:06,Pong,1328.2,812.8,0.4,2.8,44.3,615,722,1536,-2.4,-2.4,atest,3.8
2022-03-27 14:05:06,Pong,1343.4,797.6,0.4,2.8,44.3,616,722,1536,-2.2,-2.4,atest,3.9
2022-03-27 14:05:06,Pong,1348.4,800.8,0.4,2.8,44.3,617,722,1536,-2.1,-2.4,atest,4.1
2022-03-27 14:05:06,Pong,1353.6,791.6,0.4,2.8,44.3,618,722,1536,-2.3,-2.4,atest,4.1
2022-03-27 14:05:06,Pong,1355.6,796.8,0.4,2.8,44.4,619,722,1536,-2.2,-2.5,atest,4.1
2022-03-27 14:05:06,Pong,1362.4,793.8,0.4,2.8,44.3,620,722,1536,-2.1,-2.5,atest,3.9
2022-03-27 14:05:06,Pong,1364.8,799.4,0.4,2.7,44.2,621,722,1536,-2.3,-2.4,atest,4.2
2022-03-27 14:05:06,Pong,1367.2,805.6,0.4,2.7,44.1,622,722,1536,-2.6,-2.3,atest,4.1
2022-03-27 14:05:06,Pong,1369.4,809.4,0.4,2.8,44.3,623,722,1536,-2.4,-2.5,atest,3.8
2022-03-27 14:05:07,Pong,1373,817.4,0.4,2.7,44.1,624,722,1536,-2,-2.4,atest,4.1
2022-03-27 14:05:07,Pong,1379.2,816,0.4,2.7,44.3,625,722,1536,-2,-2.4,atest,4.1
2022-03-27 14:05:07,Pong,1371.4,799.4,0.4,2.6,44.1,626,722,1536,-2,-2.3,atest,4.3
2022-03-27 14:05:07,Pong,1373.2,789.4,0.4,2.5,44,627,722,1536,-1.7,-2.2,atest,3.8
2022-03-27 14:05:07,Pong,1378.2,797.4,0.4,2.6,44,628,722,1536,-2.6,-2.1,atest,4.2
2022-03-27 14:05:07,Pong,1388,808.2,0.4,2.7,44.4,629,722,1536,-2.7,-2.4,atest,4.2
2022-03-27 14:05:07,Pong,1388,821.6,0.4,2.7,44.4,630,722,1536,-3.2,-2.6,atest,4.2
2022-03-27 14:05:07,Pong,1394.4,830,0.4,2.7,44.6,631,722,1536,-3.3,-2,atest,4.3
2022-03-27 14:05:07,Pong,1400.4,839.4,0.4,2.8,44.8,632,722,1536,-3.9,-2.2,atest,4.3
2022-03-27 14:05:07,Pong,1438.2,885.2,0.4,2.9,44.6,633,722,1536,-4.9,-2.8,atest,4.3
2022-03-27 14:05:07,Pong,1434.6,882.6,0.4,2.9,44.9,634,722,1536,-4.7,-2.9,atest,4.1
2022-03-27 14:05:07,Pong,1457.4,998,0.4,2.9,44.6,635,722,1536,-4.8,-2.8,atest,4.1
2022-03-27 14:05:07,Pong,1466.4,1007,0.4,3,44.9,636,722,1536,-4.8,-2.8,atest,4.1
2022-03-27 14:05:07,Pong,1459.4,1001,0.4,3,45.4,637,722,1536,-4.3,-3.1,atest,4
2022-03-27 14:05:07,Pong,1448.8,995.6,0.4,3.1,45.3,638,722,1536,-5.2,-3.2,atest,4.2
2022-03-27 14:05:07,Pong,1403.8,992.6,0.4,3,44.5,639,722,1536,-3.8,-2.6,atest,3.8
2022-03-27 14:05:07,Pong,1421.4,987.6,0.4,3.5,45.5,640,722,1536,-6.3,-3.8,atest,4.4
2022-03-27 14:05:07,Pong,1433.8,979,0.3,3.5,45.6,641,722,1536,-6.5,-3.7,atest,4.3
2022-03-27 14:05:07,Pong,1431.6,967.2,0.3,3.5,45.5,642,722,1536,-6.6,-3.7,atest,4.3
2022-03-27 14:05:08,Pong,1428.8,978.6,0.3,3.5,45.6,643,722,1536,-6.4,-3.8,atest,4.2
2022-03-27 14:05:08,Pong,1426.6,974.8,0.3,3.6,45.7,644,722,1536,-6.4,-3.6,atest,4.1
2022-03-27 14:05:08,Pong,1423.4,989.4,0.4,3.4,45.7,645,722,1536,-6,-4,atest,4.2
2022-03-27 14:05:08,Pong,703,1006,0.4,3.7,45.5,646,722,1536,-7.1,-3.3,atest,3.8
2022-03-27 14:05:08,Pong,660.6,1029.8,0.4,3.7,45.7,647,722,1536,-6.8,-3.6,atest,3.8
2022-03-27 14:05:08,Pong,645.4,1045,0.4,3.7,45.6,648,722,1536,-6.6,-3.6,atest,4
2022-03-27 14:05:08,Pong,634.4,1051.8,0.4,3.6,45.5,649,722,1536,-6.9,-3.6,atest,3.9
2022-03-27 14:05:08,Pong,605,1072.4,0.4,3.6,45.3,650,722,1536,-6.6,-3.2,atest,3.8
2022-03-27 14:05:08,Pong,151,1114,0.4,3.6,45.8,651,722,1536,-6.3,-3.1,atest,3.6
2022-03-27 14:05:08,Pong,137,1100,0.4,3.6,46.2,652,722,1536,-6.4,-2.9,atest,3.7
2022-03-27 14:05:08,Pong,171.4,1092.6,0.4,3.4,45.7,653,722,1536,-5.9,-3.2,atest,3.8
2022-03-27 14:05:08,Pong,126.6,1086,0.4,3.6,46.2,654,722,1536,-5.7,-2.7,atest,3.5
2022-03-27 14:05:08,Pong,109.8,1072.4,0.5,3.5,45.8,655,722,1536,-5.9,-2.6,atest,3.7
2022-03-27 14:05:08,Pong,93,1073.6,0.5,3.4,45.7,656,722,1536,-5.3,-2.4,atest,3.7
2022-03-27 14:05:08,Pong,90,1084.8,0.5,3.4,45.9,657,722,1536,-5.2,-2.1,atest,3.3
2022-03-27 14:05:08,Pong,71,1095.6,0.5,3.3,45.6,658,722,1536,-5.2,-2.3,atest,3.6
2022-03-27 14:05:08,Pong,59.8,1113.8,0.4,3.3,45.4,659,722,1536,-5.1,-2.5,atest,3.7
2022-03-27 14:05:08,Pong,48.4,1109.8,0.5,3.3,45.6,660,722,1536,-5.2,-2.5,atest,3.8
2022-03-27 14:05:08,Pong,42,1116,0.5,3.3,45.7,661,722,1536,-5.1,-2.4,atest,3.8
2022-03-27 14:05:08,Pong,44,1121,0.5,3.3,45.6,662,722,1536,-5.4,-2.5,atest,3.8
2022-03-27 14:05:08,Pong,38.4,1127.8,0.5,3.2,45.8,663,722,1536,-4.6,-2.6,atest,3.6
2022-03-27 14:05:09,Pong,45.4,1124.6,0.5,3.2,45.4,664,722,1536,-5,-2.4,atest,3.6
2022-03-27 14:05:09,Pong,24.2,1126.6,0.5,3.2,45.7,665,722,1536,-4.6,-2.3,atest,3.6
2022-03-27 14:05:09,Pong,17.2,1131.8,0.5,3.2,45.8,666,722,1536,-4,-2.3,atest,3.6
2022-03-27 14:05:09,Pong,-8.8,1171.8,0.5,3.2,45.6,667,722,1536,-4.4,-2.6,atest,3.7
2022-03-27 14:05:09,Pong,4,1137.8,0.5,3.1,45.6,668,722,1536,-4,-2.5,atest,3.9
2022-03-27 14:05:09,Pong,8.4,1132.2,0.5,3.1,45.8,669,722,1536,-4.2,-2.3,atest,3.9
2022-03-27 14:05:09,Pong,7.8,1136.8,0.5,3.1,45.7,670,722,1536,-4.2,-2.4,atest,3.7
2022-03-27 14:05:09,Pong,3.4,1142,0.5,3,45.6,671,722,1536,-3.9,-2.6,atest,3.8
2022-03-27 14:05:09,Pong,0.4,1146,0.5,3,45.5,672,722,1536,-3.8,-3,atest,3.7
2022-03-27 14:05:09,Pong,6.2,1151.2,0.5,3,45.5,673,722,1536,-3.9,-2.7,atest,3.7
2022-03-27 14:05:09,Pong,10.2,1151.2,0.5,3,45.6,674,722,1536,-3.7,-2.6,atest,3.5
2022-03-27 14:05:09,Pong,14.2,1143,0.5,2.9,45.3,675,722,1536,-3.7,-2.8,atest,3.6
2022-03-27 14:05:09,Pong,20.6,1140.8,0.5,2.8,45.1,676,722,1536,-4.2,-2.7,atest,3.8
2022-03-27 14:05:09,Pong,28.6,1131.4,0.5,2.9,45.6,677,722,1536,-4.9,-2.9,atest,4.1
2022-03-27 14:05:09,Pong,33.6,1119.4,0.5,2.8,45.3,678,722,1536,-4.2,-2.9,atest,3.7
2022-03-27 14:05:09,Pong,36.2,1117.8,0.5,2.9,45.4,679,722,1536,-5.1,-3.1,atest,3.8
2022-03-27 14:05:09,Pong,49.8,1133.8,0.5,2.9,45.2,680,722,1536,-4.8,-3.2,atest,3.9
2022-03-27 14:05:09,Pong,60.4,1127.8,0.5,3,45.5,681,722,1536,-4.7,-3,atest,3.7
2022-03-27 14:05:09,Pong,60.8,1133.4,0.5,3,45.8,682,722,1536,-5.1,-3.4,atest,3.6
2022-03-27 14:05:09,Pong,86.6,1129.4,0.5,3.1,45.7,683,722,1536,-5.2,-3.3,atest,3.7
2022-03-27 14:05:09,Pong,98.4,1128.2,0.5,3.1,45.3,684,722,1536,-6,-2.9,atest,3.8
2022-03-27 14:05:10,Pong,99,1140.6,0.5,3.2,45.4,685,722,1536,-5.9,-2.8,atest,3.9
2022-03-27 14:05:10,Pong,97.4,1144.6,0.5,3.2,45.6,686,722,1536,-5.9,-3,atest,3.7
2022-03-27 14:05:10,Pong,103,1139,0.4,3.3,45.8,687,722,1536,-6.3,-3.2,atest,3.7
2022-03-27 14:05:10,Pong,116.8,1153.6,0.4,3.4,45.8,688,722,1536,-6.2,-3.2,atest,3.8
2022-03-27 14:05:10,Pong,227.8,1198,0.4,3.5,45.8,689,722,1536,-6.6,-3.2,atest,3.6
2022-03-27 14:05:10,Pong,301.4,1204.4,0.4,3.4,45.3,690,722,1536,-6.5,-3.1,atest,3.7
2022-03-27 14:05:10,Pong,338.6,1193.2,0.4,3.6,46.1,691,722,1536,-7,-2.9,atest,3.6
2022-03-27 14:05:10,Pong,435.4,1151.4,0.4,3.5,45.5,692,722,1536,-6.8,-3,atest,3.7
2022-03-27 14:05:10,Pong,459.4,1150.2,0.4,3.6,45.8,693,722,1536,-6.5,-3.4,atest,3.8
2022-03-27 14:05:10,Pong,568.8,1130,0.4,3.6,45.5,694,722,1536,-7.1,-3.1,atest,3.8
2022-03-27 14:05:10,Pong,633.6,1122.2,0.4,3.7,45.8,695,722,1536,-7.6,-2.9,atest,3.7
2022-03-27 14:05:10,Pong,638,1119.4,0.4,3.8,46,696,722,1536,-8,-3,atest,3.5
2022-03-27 14:05:10,Pong,642.2,1130.6,0.4,3.8,46,697,722,1536,-7.7,-3,atest,3.7
2022-03-27 14:05:10,Pong,625,1139,0.4,3.7,45.8,698,722,1536,-7.9,-2.9,atest,3.8
2022-03-27 14:05:10,Pong,626,1141,0.4,3.7,45.9,699,722,1536,-8,-2.9,atest,3.9
2022-03-27 14:05:10,Pong,617.6,1151.2,0.4,3.7,45.8,700,722,1536,-7.9,-3.2,atest,3.7
2022-03-27 14:05:10,Pong,607,1152.2,0.4,3.6,45.8,701,722,1536,-7.8,-3,atest,3.7
2022-03-27 14:05:10,Pong,590,1158.4,0.4,3.6,45.9,702,722,1536,-7.9,-3.4,atest,3.9
2022-03-27 14:05:10,Pong,577.4,1166.2,0.4,3.6,45.8,703,722,1536,-7.5,-3.3,atest,3.8
2022-03-27 14:05:11,Pong,539.6,1182,0.4,3.5,45.8,704,722,1536,-7.6,-3.1,atest,3.7
2022-03-27 14:05:11,Pong,506.8,1190.6,0.4,3.4,45.6,705,722,1536,-6.8,-3.4,atest,3.6
2022-03-27 14:05:11,Pong,519.2,1183,0.4,3.4,45.7,706,722,1536,-7.2,-3.1,atest,3.6
2022-03-27 14:05:11,Pong,521.6,1192.4,0.4,3.4,45.7,707,722,1536,-7.1,-3,atest,3.7
2022-03-27 14:05:11,Pong,525.4,1191,0.4,3.3,45.6,708,722,1536,-6.7,-3.2,atest,3.8
2022-03-27 14:05:11,Pong,528.6,1188.4,0.4,3.3,45.6,709,722,1536,-7,-3,atest,3.7
2022-03-27 14:05:11,Pong,526.8,1193.4,0.4,3.2,45.6,710,722,1536,-6.3,-2.9,atest,3.8
2022-03-27 14:05:11,Pong,527.6,1187.6,0.4,3.2,45.5,711,722,1536,-6.5,-3.1,atest,3.7
2022-03-27 14:05:11,Pong,529.8,1194.2,0.4,3.2,45.6,712,722,1536,-6.3,-3,atest,3.7
2022-03-27 14:05:11,Pong,535.8,1192.8,0.4,3.2,45.5,713,722,1536,-6.4,-3.2,atest,3.7
2022-03-27 14:05:11,Pong,539.6,1196,0.4,3.2,45.4,714,722,1536,-6.3,-3.1,atest,3.7
2022-03-27 14:05:11,Pong,542.4,1192.8,0.4,3.2,45.3,715,722,1536,-6.2,-3.3,atest,3.6
2022-03-27 14:05:11,Pong,555.4,1196.8,0.4,3.2,45.3,716,722,1536,-6,-3.3,atest,3.7
2022-03-27 14:05:11,Pong,677.2,1204,0.4,3.2,45.4,717,722,1536,-6.3,-3.3,atest,3.4
2022-03-27 14:05:11,Pong,697.4,1202.8,0.4,3.1,45.4,718,722,1536,-6.3,-3.4,atest,3.6
2022-03-27 14:05:11,Pong,750.2,1200.2,0.4,3.1,45.4,719,722,1536,-6.1,-3.4,atest,3.6
2022-03-27 14:05:11,Pong,761,1178.4,0.4,3.1,45.4,720,722,1536,-6.7,-3.3,atest,3.8
2022-03-27 14:05:11,Pong,770,1162.8,0.3,3,45.3,721,722,1536,-6.4,-3.5,atest,3.6
2022-03-27 14:05:11,Pong,828.6,1141.4,0.4,3.2,45.1,722,722,1536,-5.9,-3.2,atest,3.6
2022-03-27 14:05:11,Pong,921.2,1124.2,0.3,3,45.2,723,722,1536,-5.8,-3.3,atest,3.5
2022-03-27 14:05:12,Pong,944.6,1114.2,0.3,2.9,45,724,722,1536,-5.8,-3.3,atest,3.6
2022-03-27 14:05:12,Pong,1002,1110.2,0.3,2.9,45,725,722,1536,-5.5,-3.2,atest,3.7
2022-03-27 14:05:12,Pong,1009.8,1108,0.3,2.9,45.1,726,722,1536,-5.7,-3.6,atest,3.6
2022-03-27 14:05:12,Pong,1075,1090.2,0.3,2.8,44.4,727,722,1536,-4.8,-2.8,atest,3.6
2022-03-27 14:05:12,Pong,1076.2,1089,0.3,2.9,44.5,728,722,1536,-5.1,-3.1,atest,3.7
2022-03-27 14:05:12,Pong,1050.6,1089.4,0.3,2.9,44.7,729,722,1536,-5.5,-3.1,atest,3.6
2022-03-27 14:05:12,Pong,1060.2,1081.6,0.3,2.9,44.4,730,722,1536,-5,-2.8,atest,3.6
2022-03-27 14:05:12,Pong,1051.2,1077.2,0.3,2.9,44.6,731,722,1536,-5.3,-2.7,atest,3.9
2022-03-27 14:05:12,Pong,1044,1066.6,0.3,3,44.7,732,722,1536,-5.3,-2.5,atest,3.9
2022-03-27 14:05:12,Pong,1051.8,1058.2,0.3,3,44.8,733,722,1536,-5.2,-2.3,atest,4.1
2022-03-27 14:05:12,Pong,1037.8,1045.4,0.3,3,44.7,734,722,1536,-4.8,-2.4,atest,3.8
2022-03-27 14:05:12,Pong,1034.4,1047.6,0.4,3.1,44.8,735,722,1536,-4.5,-2.3,atest,3.7
2022-03-27 14:05:12,Pong,1033,1048.4,0.3,3.2,45.1,736,722,1536,-4.5,-2.6,atest,3.7
2022-03-27 14:05:12,Pong,1041.4,1041.6,0.3,3.3,45.1,737,722,1536,-4.9,-2.5,atest,3.6
