e_datetime,game,gazex,gazey,headx,heady,headz,id,inner_height,inner_width,pitch,roll,u_name,yaw
2022-04-17 16:25:44,TicTacToe,770,385,0.9,0.9,44.5,1,722,1536,-3,-2.8,atest,1.4
2022-04-17 16:25:44,TicTacToe,737.8,380.4,0.9,0.9,44.4,2,722,1536,-2.8,-2.7,atest,1.9
2022-04-17 16:25:44,TicTacToe,736.8,383.2,0.9,0.9,44.6,3,722,1536,-2.9,-2.7,atest,1.7
2022-04-17 16:25:44,TicTacToe,726.2,395.8,0.9,0.9,44.5,4,722,1536,-2.8,-2.7,atest,1.5
2022-04-17 16:25:44,TicTacToe,724.8,391,0.9,0.9,44.7,5,722,1536,-2.8,-2.8,atest,1.6
2022-04-17 16:25:44,TicTacToe,729.8,397.8,0.9,0.9,44.7,6,722,1536,-2.8,-2.8,atest,1.6
2022-04-17 16:25:44,TicTacToe,730.8,394.8,0.9,0.8,44.7,7,722,1536,-3,-2.7,atest,1.6
2022-04-17 16:25:45,TicTacToe,730.2,387.6,0.8,0.8,44.5,8,722,1536,-2.9,-2.6,atest,1.7
2022-04-17 16:25:45,TicTacToe,727.6,389.6,0.8,0.8,45.1,9,722,1536,-2.9,-2.6,atest,1.6
2022-04-17 16:25:45,TicTacToe,736,387.6,0.8,0.7,44.6,10,722,1536,-2.4,-2.5,atest,1.6
2022-04-17 16:25:45,TicTacToe,738.8,367,0.6,0.5,44.9,11,722,1536,-1.7,-2.8,atest,1.6
2022-04-17 16:25:45,TicTacToe,747,369.4,0.3,0.1,46.1,12,722,1536,-2.4,-2.6,atest,1.7
2022-04-17 16:25:45,TicTacToe,742.8,407.6,-0.1,-0.3,47.7,13,722,1536,-4.7,-2.8,atest,1.6
2022-04-17 16:25:45,TicTacToe,782,377.6,-0.7,-0.7,49.4,14,722,1536,-4.4,-2.9,atest,1.2
2022-04-17 16:25:45,TicTacToe,800.6,365.2,-1.4,-1,51.9,15,722,1536,-6.1,-3.5,atest,0.5
2022-04-17 16:25:45,TicTacToe,793.4,395,-2.1,-1,54.5,16,722,1536,-7.7,-4.6,atest,0
2022-04-17 16:25:45,TicTacToe,798.2,409,-2.6,-0.9,56.4,17,722,1536,-8.5,-4.9,atest,-0.3
2022-04-17 16:25:45,TicTacToe,823.2,430.6,-3.3,-0.3,60.7,18,722,1536,-10.8,-6.1,atest,-0.7
2022-04-17 16:25:45,TicTacToe,807.2,416,-3,-0.6,58.3,19,722,1536,-9.9,-5.7,atest,-0.4
2022-04-17 16:25:45,TicTacToe,840.2,465.4,-3.5,0.2,63,20,722,1536,-10.9,-6.3,atest,-1
2022-04-17 16:25:45,TicTacToe,868.4,499.8,-3.7,1.1,65.8,21,722,1536,-11.6,-5.7,atest,-1
2022-04-17 16:25:45,TicTacToe,883.6,465,-3.8,1.9,68.3,22,722,1536,-9.7,-5.6,atest,-1.3
2022-04-17 16:25:45,TicTacToe,920.4,477,-3.9,2.3,69.3,23,722,1536,-11.7,-5.5,atest,-1.7
2022-04-17 16:25:45,TicTacToe,936.6,508.2,-3.9,2.6,69.9,24,722,1536,-12.4,-5.2,atest,-2
2022-04-17 16:25:45,TicTacToe,958.2,517.2,-4,2.9,70.9,25,722,1536,-12.9,-4.7,atest,-2.3
2022-04-17 16:25:45,TicTacToe,964.2,521.2,-4.1,3.2,72.2,26,722,1536,-13.5,-4.3,atest,-2.7
2022-04-17 16:25:45,TicTacToe,965.4,519,-4.2,3.4,73.2,27,722,1536,-13.8,-4.2,atest,-2.6
2022-04-17 16:25:46,TicTacToe,988.4,516,-4.3,3.4,73.6,28,722,1536,-14,-3.9,atest,-2.6
2022-04-17 16:25:46,TicTacToe,1004.4,542.6,-4.3,3.5,73.8,29,722,1536,-14.9,-3.9,atest,-2.7
2022-04-17 16:25:46,TicTacToe,1003.6,547,-4.4,3.7,74.6,30,722,1536,-15.9,-3.8,atest,-2.8
2022-04-17 16:25:46,TicTacToe,1025.4,582,-4.4,3.8,75,31,722,1536,-16,-3.8,atest,-3
2022-04-17 16:25:46,TicTacToe,1034.4,587.8,-4.4,3.8,75.5,32,722,1536,-17.1,-3.3,atest,-3.1
2022-04-17 16:25:46,TicTacToe,1043.6,579.8,-4.4,4,76.6,33,722,1536,-17.7,-3.1,atest,-3.3
2022-04-17 16:25:46,TicTacToe,1067.4,636.2,-4.3,4.1,77.2,34,722,1536,-18.4,-2.8,atest,-3.4
2022-04-17 16:25:46,TicTacToe,1261,963,-4.3,4.2,77.5,35,722,1536,-18,-3.2,atest,-3.6
2022-04-17 16:25:46,TicTacToe,1312,1384,-4.1,4.3,78.2,36,722,1536,-18.6,-2.4,atest,-3.4
2022-04-17 16:25:46,TicTacToe,914,1465,-3.7,4.6,79.1,37,722,1536,-18.2,-1.6,atest,-3.2
2022-04-17 16:25:46,TicTacToe,1064,674,-3.7,4.5,77.6,38,722,1536,-16.6,-0.6,atest,-3.1
2022-04-17 16:25:46,TicTacToe,1061.6,584.8,-3,4.7,77.2,39,722,1536,-16.2,-0.4,atest,-3.1
2022-04-17 16:25:46,TicTacToe,894,456,-2.9,4.7,77.1,40,722,1536,-16.2,-1.3,atest,-3
2022-04-17 16:25:46,TicTacToe,740,474,-2.8,4.7,76.9,41,722,1536,-16.3,-2,atest,-2.9
2022-04-17 16:25:46,TicTacToe,942,413,-2.5,4.6,76.4,42,722,1536,-17.1,-0.3,atest,-2.8
2022-04-17 16:25:46,TicTacToe,958.6,445.2,-2.3,4.4,76.2,43,722,1536,-16.5,0.1,atest,-2.7
2022-04-17 16:25:46,TicTacToe,973.6,447.8,-2.1,4.3,76,44,722,1536,-16.2,0.4,atest,-2.6
2022-04-17 16:25:46,TicTacToe,990.4,455.4,-1.8,4,75.5,45,722,1536,-15.6,0.5,atest,-2.5
2022-04-17 16:25:46,TicTacToe,980.2,470.8,-1.2,3.5,74.2,46,722,1536,-15.8,0.1,atest,-2.3
2022-04-17 16:25:46,TicTacToe,975.2,514.2,-0.8,3.2,73.6,47,722,1536,-16.6,-0.4,atest,-2.1
2022-04-17 16:25:46,TicTacToe,865.4,555.4,-0.5,2.8,72.8,48,722,1536,-13.6,-0.7,atest,-1.7
2022-04-17 16:25:46,TicTacToe,753.2,523.4,0.2,2.2,70.9,49,722,1536,-13.8,-0.7,atest,-1.6
2022-04-17 16:25:46,TicTacToe,752.2,585.8,0.7,1.7,69.3,50,722,1536,-11.5,-0.8,atest,-1.3
2022-04-17 16:25:46,TicTacToe,776.4,593,0.8,1.5,68.7,51,722,1536,-11.7,0.4,atest,-1.4
2022-04-17 16:25:46,TicTacToe,767.2,587.2,1,1.3,67.6,52,722,1536,-9.4,-0.4,atest,-1.4
2022-04-17 16:25:46,TicTacToe,773,569.2,1.1,1.1,66.7,53,722,1536,-8.6,-0.5,atest,-1.5
2022-04-17 16:25:47,TicTacToe,771,371,1.2,0.6,63,54,722,1536,-6.2,0.1,atest,-1.9
2022-04-17 16:25:47,TicTacToe,781.6,409.2,1.2,0.4,61.9,55,722,1536,-4.8,0.7,atest,-2.2
2022-04-17 16:25:47,TicTacToe,798,445.2,1.2,0.2,59.9,56,722,1536,-3.9,1.2,atest,-2.3
2022-04-17 16:25:47,TicTacToe,817,458.6,1.2,-0.1,58.3,57,722,1536,-3.8,1.2,atest,-2.2
2022-04-17 16:25:47,TicTacToe,826.4,455.2,1.2,-0.1,57.8,58,722,1536,-3.6,1.1,atest,-2.2
2022-04-17 16:25:47,TicTacToe,800.6,463.4,0.8,-0.6,51,59,722,1536,-1,-0.2,atest,-0.8
2022-04-17 16:25:47,TicTacToe,787.4,465.2,0.8,-0.7,50.3,60,722,1536,-0.3,-0.6,atest,-0.7
2022-04-17 16:25:47,TicTacToe,760.6,457.6,0.7,-0.7,49.5,61,722,1536,0,-0.7,atest,-0.7
2022-04-17 16:25:47,TicTacToe,745.2,443.2,0.7,-0.7,48.1,62,722,1536,0.1,-0.6,atest,-0.6
2022-04-17 16:25:47,TicTacToe,736.8,455.8,0.7,-0.8,46.9,63,722,1536,0.4,-0.8,atest,-0.5
2022-04-17 16:25:47,TicTacToe,721.8,470.2,0.7,-0.8,45.9,64,722,1536,0.4,-0.9,atest,-0.5
2022-04-17 16:25:47,TicTacToe,714,468.8,0.7,-0.8,43.8,65,722,1536,0.8,-0.7,atest,0.5
2022-04-17 16:25:47,TicTacToe,712.2,463.6,0.8,-0.9,42.2,66,722,1536,1.8,-0.5,atest,0.5
2022-04-17 16:25:47,TicTacToe,703,467.8,0.9,-0.9,41.7,67,722,1536,2.5,-0.6,atest,0.5
2022-04-17 16:25:47,TicTacToe,650,477.2,1,-0.9,40.7,68,722,1536,2.8,-0.9,atest,0.6
2022-04-17 16:25:47,TicTacToe,641.2,471.2,1,-0.9,40.2,69,722,1536,3,-1.4,atest,0.7
2022-04-17 16:25:47,TicTacToe,606.4,465.4,1.1,-0.8,38.9,70,722,1536,3,-2.3,atest,0.7
2022-04-17 16:25:47,TicTacToe,577.6,453.4,1.2,-0.8,38.5,71,722,1536,3.4,-3.4,atest,1
2022-04-17 16:25:47,TicTacToe,518.4,421.8,1.3,-0.8,38.3,72,722,1536,3.5,-4,atest,1
2022-04-17 16:25:47,TicTacToe,475.4,402,1.3,-0.7,38.1,73,722,1536,3.7,-4.3,atest,1
2022-04-17 16:25:47,TicTacToe,494,385.2,1.5,-0.7,37.5,74,722,1536,3.5,-4.4,atest,1
2022-04-17 16:25:47,TicTacToe,510.4,366.4,1.5,-0.7,37.4,75,722,1536,3,-4.3,atest,1
2022-04-17 16:25:47,TicTacToe,560,278.8,1.5,-0.7,37.4,76,722,1536,2.9,-4.3,atest,1
2022-04-17 16:25:47,TicTacToe,599.4,151.2,1.5,-0.6,37.3,77,722,1536,2.7,-4.2,atest,0.9
2022-04-17 16:25:47,TicTacToe,601,34.6,1.5,-0.6,37.3,78,722,1536,2.5,-4.1,atest,0.9
2022-04-17 16:25:47,TicTacToe,626,-20.4,1.5,-0.6,37.3,79,722,1536,2.4,-4.1,atest,0.9
2022-04-17 16:25:48,TicTacToe,466,273,1.6,-0.6,37.3,80,722,1536,3.9,-4.2,atest,0.9
2022-04-17 16:25:48,TicTacToe,454.4,237.6,1.6,-0.4,37.2,81,722,1536,4,-4.8,atest,1.2
2022-04-17 16:25:48,TicTacToe,440.8,222.4,1.6,-0.3,37.1,82,722,1536,4.3,-4.9,atest,1.2
2022-04-17 16:25:48,TicTacToe,643,325,1.7,-0.2,36.9,83,722,1536,4.3,-1.6,atest,0.8
2022-04-17 16:25:48,TicTacToe,663,333.4,1.8,-0.2,36.6,84,722,1536,4.4,-1.6,atest,0.6
2022-04-17 16:25:48,TicTacToe,658.6,338.8,1.9,-0.1,36.4,85,722,1536,4.5,-1.9,atest,0.5
2022-04-17 16:25:48,TicTacToe,648.2,335,2.1,-0.1,36,86,722,1536,6.4,-2,atest,0.3
2022-04-17 16:25:48,TicTacToe,299,130,2.2,-0.1,35.7,87,722,1536,7.7,-1.9,atest,0.3
2022-04-17 16:25:48,TicTacToe,611,338,2.4,-0.2,35.3,88,722,1536,5.9,-2.2,atest,0.1
2022-04-17 16:25:48,TicTacToe,629,354.4,2.7,-0.4,34.5,89,722,1536,4.9,-2.8,atest,0.2
2022-04-17 16:25:48,TicTacToe,656,372.6,3.1,-0.7,33.5,90,722,1536,5.1,-2.2,atest,0.1
2022-04-17 16:25:48,TicTacToe,652.6,377.4,3.3,-0.8,32.8,91,722,1536,5.4,-1.8,atest,0.5
2022-04-17 16:25:48,TicTacToe,692.6,352.8,3.5,-0.9,32.5,92,722,1536,5.9,-1.3,atest,1
2022-04-17 16:25:48,TicTacToe,751.2,345.6,3.8,-0.9,31.8,93,722,1536,6,-1,atest,1.6
2022-04-17 16:25:48,TicTacToe,828.4,303,4.1,-0.9,30.8,94,722,1536,6.3,-0.6,atest,1.3
2022-04-17 16:25:48,TicTacToe,836,306.6,4.2,-0.9,30.5,95,722,1536,6.7,-0.7,atest,1.3
2022-04-17 16:25:48,TicTacToe,815.6,325.2,4.2,-0.9,30.4,96,722,1536,6.5,-1.1,atest,1.2
2022-04-17 16:25:48,TicTacToe,803,324.2,4.3,-0.9,29.9,97,722,1536,7.3,-0.8,atest,1
2022-04-17 16:25:48,TicTacToe,811.2,316.4,4.5,-0.8,29.4,98,722,1536,7.1,-1.4,atest,0.8
2022-04-17 16:25:48,TicTacToe,794.2,311.8,4.5,-0.7,29.1,99,722,1536,7.1,-1.4,atest,0.7
2022-04-17 16:25:48,TicTacToe,833,279.8,4.6,-0.6,28.7,100,722,1536,6.8,-0.5,atest,0.7
2022-04-17 16:25:48,TicTacToe,966,12,4.6,-0.6,28.4,101,722,1536,6.9,0.4,atest,0.7
2022-04-17 16:25:49,TicTacToe,962,180,4.5,-0.5,28.2,102,722,1536,8,1.7,atest,0
2022-04-17 16:25:49,TicTacToe,757,339,4.3,-0.6,28.2,103,722,1536,7.8,0.9,atest,0.1
2022-04-17 16:25:49,TicTacToe,755.6,354.4,4,-0.6,28.4,104,722,1536,7.3,-0.1,atest,0.1
2022-04-17 16:25:49,TicTacToe,739.8,364,3.7,-0.6,28.7,105,722,1536,7.5,-0.9,atest,0.1
2022-04-17 16:25:49,TicTacToe,733.2,370,3.3,-0.7,29.2,106,722,1536,7.3,-1.4,atest,0
2022-04-17 16:25:49,TicTacToe,720.2,372.6,3.3,-0.7,29.5,107,722,1536,7.1,-3,atest,0
2022-04-17 16:25:49,TicTacToe,663,378.2,3.4,-0.7,30.5,108,722,1536,7.2,-5.3,atest,0
2022-04-17 16:25:49,TicTacToe,593.6,381.8,3.8,-0.7,31.1,109,722,1536,6.6,-8.7,atest,-0.1
2022-04-17 16:25:49,TicTacToe,537.8,389.4,4.2,-0.6,31.7,110,722,1536,5.6,-9.8,atest,0.2
2022-04-17 16:25:49,TicTacToe,537.2,399.6,4.5,-0.6,31.9,111,722,1536,5.2,-10.6,atest,0.3
2022-04-17 16:25:49,TicTacToe,747,324,4.9,-0.5,32.3,112,722,1536,4.2,-10.8,atest,1.2
2022-04-17 16:25:49,TicTacToe,752.8,315.8,5.4,-0.5,32.6,113,722,1536,4.4,-10.7,atest,1.2
2022-04-17 16:25:49,TicTacToe,728,315.6,5.6,-0.5,32.7,114,722,1536,4.3,-9.9,atest,1.6
2022-04-17 16:25:49,TicTacToe,783,112,6,-0.4,32.9,115,722,1536,4,-8.6,atest,1.7
2022-04-17 16:25:49,TicTacToe,835.2,128.6,6.2,-0.4,32.9,116,722,1536,4,-7.6,atest,1.7
2022-04-17 16:25:49,TicTacToe,827,129.8,6.4,-0.4,32.9,117,722,1536,3.9,-7.3,atest,1.7
2022-04-17 16:25:49,TicTacToe,830,130.8,6.4,-0.4,32.8,118,722,1536,3.9,-7.2,atest,1.7
2022-04-17 16:25:49,TicTacToe,825.6,122,6.4,-0.4,32.8,119,722,1536,3.9,-7.1,atest,1.7
2022-04-17 16:25:49,TicTacToe,801.6,75.8,6.4,-0.4,32.7,120,722,1536,3.9,-7,atest,1.6
2022-04-17 16:25:49,TicTacToe,795.8,62.6,6.4,-0.3,32.8,121,722,1536,3.9,-6.9,atest,1.6
2022-04-17 16:25:49,TicTacToe,793.6,45.6,6.4,-0.3,32.8,122,722,1536,3.8,-6.7,atest,1.6
2022-04-17 16:25:49,TicTacToe,778.2,59,6.3,-0.3,32.5,123,722,1536,4.7,-5.4,atest,0.9
2022-04-17 16:25:49,TicTacToe,796.8,-23.2,6.2,-0.3,32.3,124,722,1536,4.9,-4.8,atest,0.9
2022-04-17 16:25:49,TicTacToe,849.8,-208.6,6.1,-0.3,32.1,125,722,1536,4.8,-4.3,atest,0.9
2022-04-17 16:25:50,TicTacToe,856,-119.2,5.7,-0.3,31.5,126,722,1536,5.3,-3.9,atest,0.9
2022-04-17 16:25:50,TicTacToe,808,1.6,4.5,-0.3,31.1,127,722,1536,4.8,-2.9,atest,-0.3
2022-04-17 16:25:50,TicTacToe,765.2,51.8,4.1,-0.4,31,128,722,1536,5.1,-2.9,atest,-0.2
2022-04-17 16:25:50,TicTacToe,753.4,68.6,3.3,-0.4,31,129,722,1536,5.6,-3.9,atest,-0.3
2022-04-17 16:25:50,TicTacToe,796.6,69.8,2.6,-0.4,30.8,130,722,1536,4.5,-1.4,atest,-1.2
2022-04-17 16:25:50,TicTacToe,813.2,74.8,1,-0.6,30.5,131,722,1536,4.7,-1.6,atest,-1.4
2022-04-17 16:25:50,TicTacToe,812.4,81.6,0.7,-0.6,30.4,132,722,1536,5.1,-2,atest,-1.4
2022-04-17 16:25:50,TicTacToe,810.8,81.2,-0.1,-0.7,30.2,133,722,1536,5.2,-1.6,atest,-1.6
2022-04-17 16:25:50,TicTacToe,792.8,93.4,-0.4,-0.8,30.2,134,722,1536,4.9,-2.7,atest,-1.6
2022-04-17 16:25:50,TicTacToe,783.2,101.2,-0.9,-0.8,30.2,135,722,1536,4.7,-3.5,atest,-1.8
2022-04-17 16:25:50,TicTacToe,761.6,103.6,-1.1,-0.8,30.1,136,722,1536,4.6,-3.1,atest,-2.5
2022-04-17 16:25:50,TicTacToe,747,115,-1.5,-0.8,30,137,722,1536,4.7,-3,atest,-2.5
2022-04-17 16:25:50,TicTacToe,740.6,111.4,-1.7,-0.8,29.9,138,722,1536,4.8,-3,atest,-2.5
2022-04-17 16:25:50,TicTacToe,731,105.2,-1.8,-0.9,29.8,139,722,1536,4.8,-3,atest,-2.5
2022-04-17 16:25:50,TicTacToe,664.4,69.6,-1.8,-0.8,29.8,140,722,1536,5.3,-3.1,atest,-2.5
2022-04-17 16:25:50,TicTacToe,602.6,-12.8,-1.8,-0.8,29.8,141,722,1536,5.6,-3.2,atest,-2.5
2022-04-17 16:25:50,TicTacToe,586,-10.8,-1.8,-0.8,29.8,142,722,1536,5.6,-3.2,atest,-2.5
2022-04-17 16:25:50,TicTacToe,630,16.2,-1.8,-0.9,29.6,143,722,1536,5.3,-2.6,atest,-1.9
2022-04-17 16:25:50,TicTacToe,728.4,104.6,-1.5,-1.2,28.3,144,722,1536,5.6,-2.6,atest,-1.8
2022-04-17 16:25:50,TicTacToe,724.8,99.8,-1.5,-1.1,28.7,145,722,1536,5.6,-2.4,atest,-1.8
2022-04-17 16:25:51,TicTacToe,738,110.4,-1.4,-1.2,28.5,146,722,1536,5.6,-2,atest,-1.6
2022-04-17 16:25:51,TicTacToe,726.6,99,-1.3,-1.3,28.2,147,722,1536,5.9,-2.2,atest,-1.6
2022-04-17 16:25:51,TicTacToe,722,87.2,-1.2,-1.4,28.1,148,722,1536,6.1,-2.2,atest,-1.5
2022-04-17 16:25:51,TicTacToe,718.8,67,-1.1,-1.5,28.1,149,722,1536,6.3,-2.2,atest,-1.5
2022-04-17 16:25:51,TicTacToe,732.8,86.4,-1.1,-1.5,28.1,150,722,1536,6.4,-2.1,atest,-1.4
2022-04-17 16:25:51,TicTacToe,718,56.2,-1.1,-1.5,28.1,151,722,1536,6.3,-2.2,atest,-1.4
2022-04-17 16:25:51,TicTacToe,801,336,-1.1,-1.6,28,152,722,1536,6.4,-2,atest,-1
2022-04-17 16:25:51,TicTacToe,800.8,298,-1,-1.6,28,153,722,1536,6,-1.7,atest,-1
2022-04-17 16:25:51,TicTacToe,800,281,-1,-1.6,28,154,722,1536,6.1,-1.6,atest,-1
2022-04-17 16:25:51,TicTacToe,798.4,219.8,-1,-1.7,28,155,722,1536,6.4,-1.3,atest,-1
2022-04-17 16:25:51,TicTacToe,809,1,-1,-1.7,27.9,156,722,1536,7.1,-0.9,atest,-1
2022-04-17 16:25:51,TicTacToe,803,-16.4,-1,-1.7,27.9,157,722,1536,7.3,-0.9,atest,-1
2022-04-17 16:25:51,TicTacToe,758,254,-1,-1.8,27.8,158,722,1536,6.5,-1.2,atest,-0.5
2022-04-17 16:25:51,TicTacToe,764.2,308.8,-1,-1.9,27.8,159,722,1536,5.2,-1,atest,-0.8
2022-04-17 16:25:51,TicTacToe,765.4,321.8,-1,-2.3,27.5,160,722,1536,5,-1,atest,-1
2022-04-17 16:25:51,TicTacToe,765,323.2,-1,-2.4,27.4,161,722,1536,5.2,-1,atest,-1.5
2022-04-17 16:25:51,TicTacToe,770,321.6,-1,-2.4,27.3,162,722,1536,5.4,-0.8,atest,-1.6
2022-04-17 16:25:51,TicTacToe,770,297.8,-1.2,-2.7,27,163,722,1536,5.4,-0.3,atest,-1.6
2022-04-17 16:25:51,TicTacToe,773.2,288,-1.3,-2.7,27,164,722,1536,5.7,-0.4,atest,-1.7
2022-04-17 16:25:51,TicTacToe,782.6,272.8,-1.5,-2.9,26.7,165,722,1536,6.7,-0.4,atest,-1.7
2022-04-17 16:25:51,TicTacToe,786,258,-1.6,-2.9,26.5,166,722,1536,7.2,-0.7,atest,-1.3
2022-04-17 16:25:51,TicTacToe,793.2,251.2,-1.8,-3,26.4,167,722,1536,7.3,-0.8,atest,-1.4
2022-04-17 16:25:51,TicTacToe,797.8,238.6,-2,-3,26.2,168,722,1536,7.2,-0.8,atest,-1.5
2022-04-17 16:25:52,TicTacToe,792.4,230.2,-2.5,-2.9,25.9,169,722,1536,7.8,-1.1,atest,-1.5
2022-04-17 16:25:52,TicTacToe,793.6,218.8,-2.8,-2.8,25.7,170,722,1536,7.7,-1.5,atest,-1.1
2022-04-17 16:25:52,TicTacToe,800.6,181,-2.9,-2.8,25.7,171,722,1536,7.6,-1.8,atest,-1.3
2022-04-17 16:25:52,TicTacToe,800,173.4,-2.9,-2.8,25.7,172,722,1536,7.3,-2.6,atest,-1.2
2022-04-17 16:25:52,TicTacToe,798.4,169.6,-2.8,-2.8,25.6,173,722,1536,7.2,-3.8,atest,-1.3
2022-04-17 16:25:52,TicTacToe,786.2,163.2,-2.8,-2.8,25.6,174,722,1536,6.8,-5,atest,-1.2
2022-04-17 16:25:52,TicTacToe,774.4,156.6,-2.3,-2.8,25.4,175,722,1536,6.3,-4.8,atest,-0.7
2022-04-17 16:25:52,TicTacToe,756.2,135.6,-1.3,-2.8,24.9,176,722,1536,6.3,-4.7,atest,-0.7
2022-04-17 16:25:52,TicTacToe,755,128.2,-1.1,-2.8,25,177,722,1536,6.7,-4.8,atest,-0.6
2022-04-17 16:25:52,TicTacToe,762,125.4,-0.7,-2.7,25,178,722,1536,6.8,-4.1,atest,-0.5
2022-04-17 16:25:52,TicTacToe,761.4,121.4,-0.3,-2.7,25,179,722,1536,6.9,-3.6,atest,-0.6
2022-04-17 16:25:52,TicTacToe,761,148.8,-0.2,-2.6,25.1,180,722,1536,6.3,-2.7,atest,0.1
2022-04-17 16:25:52,TicTacToe,752.4,162,0,-2.5,25.1,181,722,1536,6.6,-2.5,atest,0
2022-04-17 16:25:52,TicTacToe,740.8,261,0.1,-2.5,25.1,182,722,1536,6.4,-2.4,atest,0.4
2022-04-17 16:25:52,TicTacToe,730.8,280.8,0.2,-2.4,25.1,183,722,1536,6.5,-2.3,atest,0.1
2022-04-17 16:25:52,TicTacToe,724.4,295.6,0.3,-2.4,25.1,184,722,1536,6.4,-2.3,atest,0.1
2022-04-17 16:25:52,TicTacToe,728.8,295.4,0.3,-2.4,25.2,185,722,1536,6.3,-2.2,atest,0.1
2022-04-17 16:25:52,TicTacToe,725.6,282,0.3,-2.4,25.2,186,722,1536,6.1,-2,atest,0.1
2022-04-17 16:25:52,TicTacToe,721.8,264.6,0.3,-2.4,25.2,187,722,1536,6,-2,atest,0.1
2022-04-17 16:25:52,TicTacToe,716.2,237,0.3,-2.4,25.2,188,722,1536,6,-1.9,atest,0.1
2022-04-17 16:25:52,TicTacToe,730.8,276.6,0.3,-2.3,25.3,189,722,1536,5.3,-2.3,atest,0.4
2022-04-17 16:25:52,TicTacToe,736,284.8,0.3,-2.1,25.8,190,722,1536,5.6,-2.5,atest,0.5
2022-04-17 16:25:52,TicTacToe,735.8,284.4,0.3,-2.1,25.6,191,722,1536,5.8,-2.5,atest,0.5
2022-04-17 16:25:53,TicTacToe,731.4,286.6,0.2,-2,25.8,192,722,1536,5.9,-2.5,atest,0.6
2022-04-17 16:25:53,TicTacToe,728.2,288.4,0.2,-2,25.8,193,722,1536,5.8,-2.5,atest,0.5
2022-04-17 16:25:53,TicTacToe,726.8,278.8,0.2,-1.9,25.8,194,722,1536,6,-2.3,atest,0
2022-04-17 16:25:53,TicTacToe,727.6,276,0.1,-1.7,25.8,195,722,1536,5.8,-2,atest,-0.4
2022-04-17 16:25:53,TicTacToe,730,273,0.1,-1.6,25.9,196,722,1536,5.9,-2.1,atest,-0.2
2022-04-17 16:25:53,TicTacToe,734.8,267.2,0,-1.5,26,197,722,1536,5.9,-2,atest,-0.4
2022-04-17 16:25:53,TicTacToe,735.6,266.8,0,-1.4,26,198,722,1536,5.9,-2,atest,-0.4
2022-04-17 16:25:53,TicTacToe,734.6,267.6,0,-1.3,26.1,199,722,1536,6,-2.1,atest,-0.5
2022-04-17 16:25:53,TicTacToe,720.4,279,0,-1.3,26.1,200,722,1536,6.7,-2.4,atest,-0.5
2022-04-17 16:25:53,TicTacToe,705.4,295.4,0,-1.3,26.2,201,722,1536,6.8,-2.4,atest,-0.5
2022-04-17 16:25:53,TicTacToe,683.4,297,0,-1.3,26.2,202,722,1536,6.9,-2.4,atest,-0.5
2022-04-17 16:25:53,TicTacToe,702.4,301.4,0.1,-1.4,26.9,203,722,1536,6.4,-2.5,atest,-0.5
2022-04-17 16:25:53,TicTacToe,706.4,300.8,0.1,-1.4,27.1,204,722,1536,6.1,-2.4,atest,-0.4
2022-04-17 16:25:53,TicTacToe,709.2,304.6,0.1,-1.5,27.1,205,722,1536,5.9,-2.3,atest,-0.4
2022-04-17 16:25:53,TicTacToe,714,310.4,0.1,-1.5,27.1,206,722,1536,5.7,-2.2,atest,-0.3
2022-04-17 16:25:53,TicTacToe,722,314.4,0.1,-1.5,27.1,207,722,1536,5.7,-2.1,atest,-0.2
2022-04-17 16:25:53,TicTacToe,733.6,313.6,0.1,-1.5,27.1,208,722,1536,5.7,-2,atest,-0.2
2022-04-17 16:25:53,TicTacToe,746.2,312.4,0.1,-1.5,27.1,209,722,1536,5.7,-1.9,atest,-0.2
2022-04-17 16:25:53,TicTacToe,758,311.6,0.1,-1.5,27.1,210,722,1536,5.7,-1.8,atest,-0.2
2022-04-17 16:25:53,TicTacToe,742.8,336.2,0.1,-1.5,27.1,211,722,1536,5.5,-1.7,atest,-0.2
2022-04-17 16:25:53,TicTacToe,739.4,354.6,0,-1.5,27.1,212,722,1536,5.6,-1.7,atest,0.3
2022-04-17 16:25:53,TicTacToe,747.4,356.2,0,-1.5,27.1,213,722,1536,5.7,-1.5,atest,0.3
2022-04-17 16:25:53,TicTacToe,780.4,351.8,0,-1.5,27.1,214,722,1536,5.9,-1.2,atest,0.3
2022-04-17 16:25:53,TicTacToe,836.4,348,-0.1,-1.5,27.1,215,722,1536,6.4,-0.8,atest,0.3
2022-04-17 16:25:53,TicTacToe,867.6,329.4,-0.1,-1.5,27.1,216,722,1536,6.7,-0.7,atest,0.3
2022-04-17 16:25:54,TicTacToe,972.6,263.4,-0.1,-1.5,27.1,217,722,1536,6.8,-0.6,atest,0.3
2022-04-17 16:25:54,TicTacToe,780,405,-0.2,-1.5,27.1,218,722,1536,5.3,-1.3,atest,0
2022-04-17 16:25:54,TicTacToe,755.2,373.2,-0.3,-1.5,27.1,219,722,1536,5.2,-1.6,atest,0.1
2022-04-17 16:25:54,TicTacToe,749.2,369.8,-0.4,-1.6,27.1,220,722,1536,5.6,-1.4,atest,0
2022-04-17 16:25:54,TicTacToe,748.8,361.4,-0.5,-1.6,27.1,221,722,1536,5.6,-1.4,atest,0
2022-04-17 16:25:54,TicTacToe,747,353.2,-0.6,-1.7,27.2,222,722,1536,5,-1.6,atest,0
2022-04-17 16:25:54,TicTacToe,741,346.8,-0.9,-1.8,27.3,223,722,1536,4.6,-1.7,atest,0
2022-04-17 16:25:54,TicTacToe,743.6,344.6,-1.1,-1.8,27.2,224,722,1536,4.7,-1.9,atest,-0.4
2022-04-17 16:25:54,TicTacToe,742.4,336.8,-1.3,-1.8,27.1,225,722,1536,4.7,-2,atest,-0.7
2022-04-17 16:25:54,TicTacToe,745.2,332.4,-1.4,-1.8,27.1,226,722,1536,4.8,-1.8,atest,-0.8
2022-04-17 16:25:54,TicTacToe,750.2,335.6,-1.3,-1.9,27.1,227,722,1536,4.7,-1.4,atest,-0.8
2022-04-17 16:25:54,TicTacToe,758.2,337.2,-1.2,-2.1,27,228,722,1536,4.6,-0.9,atest,-0.5
2022-04-17 16:25:54,TicTacToe,757.4,336.2,-1.1,-2.1,27,229,722,1536,4.6,-0.8,atest,-0.5
2022-04-17 16:25:54,TicTacToe,749.8,331.2,-1,-2.1,26.9,230,722,1536,4.4,-0.8,atest,-0.5
2022-04-17 16:25:54,TicTacToe,749.2,329.4,-0.6,-2,26.6,231,722,1536,4.3,-0.6,atest,-0.5
2022-04-17 16:25:54,TicTacToe,744.2,329.4,-0.6,-2,26.5,232,722,1536,4.3,-0.7,atest,-0.5
2022-04-17 16:25:54,TicTacToe,744,328.2,-0.6,-1.9,26.5,233,722,1536,4.6,-0.6,atest,-0.5
2022-04-17 16:25:54,TicTacToe,739,332.2,-0.5,-1.9,26.5,234,722,1536,4.5,-0.7,atest,-0.1
2022-04-17 16:25:54,TicTacToe,735,333.2,-0.4,-1.9,26.4,235,722,1536,4.5,-0.6,atest,-0.4
2022-04-17 16:25:54,TicTacToe,733.6,339.6,-0.3,-1.9,26.3,236,722,1536,4.5,-0.6,atest,-0.3
2022-04-17 16:25:55,TicTacToe,733.2,345.6,-0.2,-1.9,26,237,722,1536,4.6,-0.5,atest,-0.4
2022-04-17 16:25:55,TicTacToe,736.8,345.6,-0.2,-2,25.3,238,722,1536,5.1,-0.2,atest,-0.2
2022-04-17 16:25:55,TicTacToe,738.8,354,-0.2,-2,25.3,239,722,1536,4.9,0,atest,-0.2
2022-04-17 16:25:55,TicTacToe,743.2,351.2,-0.2,-2,25.3,240,722,1536,5.2,0.2,atest,-0.1
2022-04-17 16:25:55,TicTacToe,745,348.2,-0.2,-2.1,24.7,241,722,1536,5.6,0.2,atest,-0.1
2022-04-17 16:25:55,TicTacToe,741.6,347.6,-0.2,-2.1,24.1,242,722,1536,5.6,0.2,atest,-0.1
2022-04-17 16:25:55,TicTacToe,740.2,345,-0.2,-2.1,24.1,243,722,1536,5.6,0.1,atest,-0.1
2022-04-17 16:25:55,TicTacToe,736.6,344.4,-0.2,-2.1,24,244,722,1536,5.2,0,atest,0
2022-04-17 16:25:55,TicTacToe,732.4,343.2,-0.2,-2.1,24,245,722,1536,5.1,0.1,atest,0
2022-04-17 16:25:55,TicTacToe,727.4,338.4,-0.2,-2.1,24,246,722,1536,5.1,0,atest,0
2022-04-17 16:25:55,TicTacToe,723.2,334.6,-0.2,-2,23.9,247,722,1536,5.1,0,atest,0
2022-04-17 16:25:55,TicTacToe,719,332,-0.2,-2,23.9,248,722,1536,5.2,-0.1,atest,-0.1
2022-04-17 16:25:55,TicTacToe,713.8,328.8,-0.2,-2,23.9,249,722,1536,5.2,-0.1,atest,-0.1
2022-04-17 16:25:55,TicTacToe,710.8,326.4,-0.2,-2,23.9,250,722,1536,5.4,0,atest,-0.1
2022-04-17 16:25:55,TicTacToe,709.2,335,-0.2,-2,23.9,251,722,1536,5.2,0.1,atest,-0.1
2022-04-17 16:25:55,TicTacToe,706.8,338.8,-0.1,-2,24.3,252,722,1536,5,0.2,atest,0
2022-04-17 16:25:55,TicTacToe,709.2,353.4,0,-2.1,25.7,253,722,1536,5.4,0.7,atest,0.1
2022-04-17 16:25:55,TicTacToe,707,357.6,0,-2.1,26.1,254,722,1536,5.1,0.9,atest,0.2
2022-04-17 16:25:55,TicTacToe,696,351,0.1,-2.2,27,255,722,1536,3,0.7,atest,0.2
2022-04-17 16:25:55,TicTacToe,699,346.8,0.1,-2.4,27.6,256,722,1536,2.4,0.8,atest,0.2
2022-04-17 16:25:55,TicTacToe,697.2,339,0.2,-2.8,28.5,257,722,1536,0.9,0.3,atest,0.2
2022-04-17 16:25:55,TicTacToe,708.6,332,0.2,-2.9,28.6,258,722,1536,0.7,0.1,atest,0.1
2022-04-17 16:25:56,TicTacToe,720.8,322,0.2,-3,28.7,259,722,1536,0.7,0.2,atest,0
2022-04-17 16:25:56,TicTacToe,730.6,313.4,0.2,-3,28.9,260,722,1536,0.7,0.1,atest,0
2022-04-17 16:25:56,TicTacToe,739,307.8,0.2,-3.1,28.9,261,722,1536,0.6,0.1,atest,0
2022-04-17 16:25:56,TicTacToe,744.2,296.8,0.2,-3.1,28.9,262,722,1536,0.6,0.1,atest,0
2022-04-17 16:25:56,TicTacToe,748.6,276,0.2,-3.1,29,263,722,1536,0.4,0,atest,0
2022-04-17 16:25:56,TicTacToe,751.8,312,0.3,-3.1,29.4,264,722,1536,0.5,0.3,atest,0.4
2022-04-17 16:25:56,TicTacToe,758.2,308,0.3,-3,29.9,265,722,1536,-0.1,0.4,atest,0.4
2022-04-17 16:25:56,TicTacToe,775.8,294.8,0.4,-3,30,266,722,1536,-0.5,0.3,atest,0.3
2022-04-17 16:25:56,TicTacToe,789,293.6,0.6,-2.9,30.7,267,722,1536,-0.9,0.2,atest,-0.1
2022-04-17 16:25:56,TicTacToe,790,288.2,0.6,-2.9,30.7,268,722,1536,-0.7,-0.3,atest,0.3
2022-04-17 16:25:56,TicTacToe,794.4,281.8,0.6,-2.9,30.8,269,722,1536,-0.3,-0.3,atest,0.1
2022-04-17 16:25:56,TicTacToe,792.6,270.2,0.9,-3.2,31.1,270,722,1536,-1.5,-0.7,atest,0.2
2022-04-17 16:25:56,TicTacToe,798,269.6,1.1,-3.5,31.2,271,722,1536,-1.8,-0.7,atest,0.4
2022-04-17 16:25:56,TicTacToe,799.8,261.8,1.2,-3.5,31.3,272,722,1536,-1.6,-0.7,atest,0.8
2022-04-17 16:25:56,TicTacToe,800.6,260.2,1.4,-3.6,31,273,722,1536,-1,-0.4,atest,0.9
2022-04-17 16:25:56,TicTacToe,804.2,258.8,1.5,-3.6,31,274,722,1536,-0.9,-0.5,atest,0.9
2022-04-17 16:25:56,TicTacToe,807.2,257,1.5,-3.6,30.6,275,722,1536,-0.7,-0.4,atest,1.1
2022-04-17 16:25:56,TicTacToe,803.6,256.6,1.5,-3.6,30.8,276,722,1536,-0.8,-0.3,atest,1
2022-04-17 16:25:56,TicTacToe,809,246.4,1.6,-3.5,30.1,277,722,1536,-0.4,-0.4,atest,0.8
2022-04-17 16:25:57,TicTacToe,803,235.4,1.6,-3.5,29.7,278,722,1536,0.3,-0.6,atest,0.7
2022-04-17 16:25:57,TicTacToe,797.6,232,1.7,-3.6,29.6,279,722,1536,0.8,-0.5,atest,1
2022-04-17 16:25:57,TicTacToe,789,231,1.8,-3.6,29.5,280,722,1536,1,-0.6,atest,1.1
2022-04-17 16:25:57,TicTacToe,778.6,231.4,1.8,-3.6,29.4,281,722,1536,1,-0.7,atest,1.1
2022-04-17 16:25:57,TicTacToe,774,234.8,1.8,-3.6,29.4,282,722,1536,0.9,-0.6,atest,1.2
2022-04-17 16:25:57,TicTacToe,772,234.6,1.8,-3.6,29.4,283,722,1536,0.8,-0.5,atest,1.2
2022-04-17 16:25:57,TicTacToe,783,233,1.6,-3.6,29.4,284,722,1536,0.5,0.7,atest,1.1
2022-04-17 16:25:57,TicTacToe,784.8,236.2,1.4,-3.6,29.4,285,722,1536,0.3,0.9,atest,0.6
2022-04-17 16:25:57,TicTacToe,787.4,236.4,1.3,-3.5,29.4,286,722,1536,0.4,0.9,atest,0.5
2022-04-17 16:25:57,TicTacToe,791.8,234.8,0.8,-3.5,29.4,287,722,1536,0.2,0.7,atest,0
2022-04-17 16:25:57,TicTacToe,791.4,232.6,0.7,-3.5,29.4,288,722,1536,0,0.2,atest,0.5
2022-04-17 16:25:57,TicTacToe,795.2,228.8,0.6,-3.5,29.4,289,722,1536,-0.3,0.4,atest,0.2
2022-04-17 16:25:57,TicTacToe,799,222.4,0.3,-3.5,29.5,290,722,1536,-0.7,0.3,atest,0.1
2022-04-17 16:25:57,TicTacToe,799.6,220,0.1,-3.5,29.5,291,722,1536,-0.6,0,atest,0.2
2022-04-17 16:25:57,TicTacToe,806.8,216,0.1,-3.5,29.5,292,722,1536,-0.4,0.1,atest,0.2
2022-04-17 16:25:57,TicTacToe,809.4,214.2,0.1,-3.4,29.4,293,722,1536,-0.4,0.1,atest,0.2
2022-04-17 16:25:57,TicTacToe,811.6,214,0.1,-3.4,29.4,294,722,1536,-0.4,0.1,atest,0.2
2022-04-17 16:25:57,TicTacToe,813.8,211.6,0.1,-3.4,29.4,295,722,1536,-0.4,0.1,atest,0.2
2022-04-17 16:25:57,TicTacToe,813.2,208.2,0.1,-3.4,29.4,296,722,1536,-0.4,-0.1,atest,0.2
2022-04-17 16:25:57,TicTacToe,814.8,207.6,0.1,-3.5,29.4,297,722,1536,-0.1,0,atest,0.2
2022-04-17 16:25:57,TicTacToe,813.2,199.4,0.1,-3.5,29.4,298,722,1536,0,0,atest,0.2
2022-04-17 16:25:57,TicTacToe,815.4,196.8,0.2,-3.6,29.5,299,722,1536,0.1,0,atest,0.3
2022-04-17 16:25:58,TicTacToe,811,203.2,0.3,-3.8,29.6,300,722,1536,-0.5,-0.2,atest,0.2
2022-04-17 16:25:58,TicTacToe,809.2,203,0.4,-4,29.7,301,722,1536,-0.7,-0.2,atest,0.3
2022-04-17 16:25:58,TicTacToe,808.2,208.6,0.5,-4.1,29.9,302,722,1536,-0.7,-0.3,atest,0.4
2022-04-17 16:25:58,TicTacToe,809.2,212.8,0.5,-4.2,30,303,722,1536,-1,-0.3,atest,0.5
2022-04-17 16:25:58,TicTacToe,804.2,217,0.5,-4.2,30,304,722,1536,-0.9,-0.5,atest,0.4
2022-04-17 16:25:58,TicTacToe,802.4,221.6,0.5,-4.2,30,305,722,1536,-1.1,-0.7,atest,0.5
2022-04-17 16:25:58,TicTacToe,800.6,224.6,0.5,-4.3,30,306,722,1536,-1.2,-0.9,atest,0.5
2022-04-17 16:25:58,TicTacToe,798.6,228.6,0.6,-4.1,29.7,307,722,1536,-1.1,-0.8,atest,0.5
2022-04-17 16:25:58,TicTacToe,800,229,0.6,-4.1,29.6,308,722,1536,-1,-0.8,atest,0.3
2022-04-17 16:25:58,TicTacToe,798.6,229.4,0.6,-4.1,29.8,309,722,1536,-0.9,-1,atest,0.3
2022-04-17 16:25:58,TicTacToe,792.2,230.2,0.7,-4.1,29.6,310,722,1536,-0.7,-1,atest,0.6
2022-04-17 16:25:58,TicTacToe,793,231.4,0.7,-4,29.6,311,722,1536,-0.6,-1.1,atest,0.7
2022-04-17 16:25:58,TicTacToe,790.4,238.6,0.9,-4,29.4,312,722,1536,-0.4,-1,atest,0.6
2022-04-17 16:25:58,TicTacToe,788.8,241.2,0.9,-3.9,29.3,313,722,1536,-0.3,-0.9,atest,0.5
2022-04-17 16:25:58,TicTacToe,786.4,242.2,1.1,-3.9,29.1,314,722,1536,-0.1,-1.1,atest,0.7
2022-04-17 16:25:58,TicTacToe,785,245.4,1.2,-3.9,28.9,315,722,1536,0.2,-1.4,atest,0.6
2022-04-17 16:25:58,TicTacToe,784.2,247.8,1.2,-3.9,29.1,316,722,1536,0.1,-1.5,atest,0.6
2022-04-17 16:25:58,TicTacToe,784.8,238.2,1.3,-3.9,29.1,317,722,1536,0.3,-1.6,atest,0.6
2022-04-17 16:25:58,TicTacToe,782.6,206.8,1.3,-3.9,29,318,722,1536,0.1,-1.6,atest,0.6
2022-04-17 16:25:58,TicTacToe,785,195,1.3,-3.9,29.1,319,722,1536,0.4,-1.5,atest,0.5
2022-04-17 16:25:58,TicTacToe,783.2,192.4,0.8,-4.1,29.5,320,722,1536,-0.1,-0.9,atest,0.1
2022-04-17 16:25:59,TicTacToe,788.8,180.6,0.7,-4.1,29.4,321,722,1536,-0.7,-0.4,atest,0
2022-04-17 16:25:59,TicTacToe,790.8,173.6,0.6,-4.1,29.4,322,722,1536,-0.5,-0.3,atest,0.2
2022-04-17 16:25:59,TicTacToe,787.8,163.4,0.3,-4.1,29.4,323,722,1536,-1.2,-0.7,atest,0
2022-04-17 16:25:59,TicTacToe,789.2,154.8,0.1,-4.2,29.5,324,722,1536,-0.9,-0.7,atest,0.1
2022-04-17 16:25:59,TicTacToe,792.4,117.6,0.1,-4.2,29.5,325,722,1536,-0.9,-0.5,atest,0.1
2022-04-17 16:25:59,TicTacToe,794,110.6,0.1,-4.2,29.5,326,722,1536,-0.9,-0.5,atest,0.2
2022-04-17 16:25:59,TicTacToe,795.4,107.8,0,-4.2,29.5,327,722,1536,-0.3,-0.7,atest,0.1
2022-04-17 16:25:59,TicTacToe,796.6,106.4,-0.1,-4.2,29.6,328,722,1536,0.1,-1,atest,0.1
2022-04-17 16:25:59,TicTacToe,797.2,103.6,-0.2,-4.2,29.6,329,722,1536,0.1,-1,atest,0
2022-04-17 16:25:59,TicTacToe,793.6,101.6,-0.2,-4.3,29.6,330,722,1536,0.3,-1,atest,0
2022-04-17 16:25:59,TicTacToe,793.2,96.4,-0.2,-4.3,29.5,331,722,1536,0.7,-1.2,atest,0
2022-04-17 16:25:59,TicTacToe,791.8,87,-0.2,-4.4,29.4,332,722,1536,1.2,-1.4,atest,0
2022-04-17 16:25:59,TicTacToe,782.2,84.8,-0.1,-4.5,29.2,333,722,1536,3.3,-1.2,atest,0
2022-04-17 16:25:59,TicTacToe,773.6,89.2,-0.1,-4.7,29.6,334,722,1536,4,-1.3,atest,-0.4
2022-04-17 16:25:59,TicTacToe,760.4,94.4,-0.2,-4.8,29.6,335,722,1536,5,-1.3,atest,-0.4
2022-04-17 16:25:59,TicTacToe,757.4,102.8,-0.2,-4.7,29.4,336,722,1536,5.9,-1.1,atest,-0.5
2022-04-17 16:25:59,TicTacToe,755.4,101.4,-0.2,-4.8,29.5,337,722,1536,6.6,-1.2,atest,-0.4
2022-04-17 16:25:59,TicTacToe,755.6,104.8,-0.2,-4.8,29.6,338,722,1536,7.5,-1.1,atest,-0.5
2022-04-17 16:25:59,TicTacToe,757.8,102.6,-0.3,-5,29.7,339,722,1536,7.6,-1.1,atest,-0.4
2022-04-17 16:25:59,TicTacToe,750.2,98.2,-0.2,-4.9,29.4,340,722,1536,7.7,-1.1,atest,0.1
2022-04-17 16:26:00,TicTacToe,739.6,108,-0.2,-5,29.3,341,722,1536,7.3,-1.3,atest,0.1
2022-04-17 16:26:00,TicTacToe,733.8,119.2,-0.2,-5,29.2,342,722,1536,7.2,-1.2,atest,0.1
2022-04-17 16:26:00,TicTacToe,723.6,128.4,-0.2,-5,29.2,343,722,1536,7.2,-1.1,atest,0.4
2022-04-17 16:26:00,TicTacToe,717.8,134,-0.1,-5,29.1,344,722,1536,7.2,-1.2,atest,0.5
2022-04-17 16:26:00,TicTacToe,764,359,-0.1,-5,28.9,345,722,1536,7.1,-1,atest,0.4
2022-04-17 16:26:00,TicTacToe,766.2,357.6,-0.1,-5,28.9,346,722,1536,6.9,-0.9,atest,0.4
2022-04-17 16:26:00,TicTacToe,763.2,355.2,-0.1,-5,28.8,347,722,1536,6.8,-1.1,atest,0.4
2022-04-17 16:26:00,TicTacToe,756.4,365.2,-0.1,-5,28.8,348,722,1536,6.8,-1.2,atest,0.4
2022-04-17 16:26:00,TicTacToe,750.8,367.4,-0.1,-4.9,28.8,349,722,1536,6.3,-1,atest,0.3
2022-04-17 16:26:00,TicTacToe,744.6,368.4,-0.1,-4.9,28.8,350,722,1536,6.2,-1.1,atest,0.3
2022-04-17 16:26:00,TicTacToe,733.4,367.4,-0.1,-4.9,28.8,351,722,1536,6.2,-1.2,atest,0.2
2022-04-17 16:26:00,TicTacToe,722,362,-0.1,-4.9,28.8,352,722,1536,6.2,-1.3,atest,0.2
2022-04-17 16:26:00,TicTacToe,707.8,350.4,0,-4.8,28.8,353,722,1536,6.2,-1.4,atest,0.2
2022-04-17 16:26:00,TicTacToe,692.8,339,0,-4.8,28.8,354,722,1536,6.2,-1.5,atest,0.2
2022-04-17 16:26:00,TicTacToe,695.8,332.8,0,-4.8,28.7,355,722,1536,6.2,-1,atest,0.3
2022-04-17 16:26:00,TicTacToe,699,345,0,-4.8,28.7,356,722,1536,6,-0.9,atest,0.3
2022-04-17 16:26:00,TicTacToe,701,361.6,0.1,-4.7,28.6,357,722,1536,6.1,-0.8,atest,0.5
2022-04-17 16:26:00,TicTacToe,700.8,338.6,0.1,-4.7,28.6,358,722,1536,6.2,-0.8,atest,0.4
2022-04-17 16:26:00,TicTacToe,703.4,350,0.2,-4.6,28.6,359,722,1536,6.5,-0.8,atest,0.5
2022-04-17 16:26:00,TicTacToe,702.6,357.8,0.2,-4.6,28.6,360,722,1536,6.7,-0.7,atest,0.4
2022-04-17 16:26:00,TicTacToe,702,341.2,0.2,-4.5,28.6,361,722,1536,6.2,-0.7,atest,0.3
2022-04-17 16:26:00,TicTacToe,709.6,338.6,0.2,-4.4,28.5,362,722,1536,6.2,-0.7,atest,0.3
2022-04-17 16:26:00,TicTacToe,702.8,354.2,0.2,-4.4,28.5,363,722,1536,6,-0.8,atest,0.3
2022-04-17 16:26:01,TicTacToe,713.8,345,0.2,-4.3,28.5,364,722,1536,5.7,-0.7,atest,0.2
2022-04-17 16:26:01,TicTacToe,716.4,352,0.2,-4.2,28.5,365,722,1536,5.5,-0.6,atest,0.2
2022-04-17 16:26:01,TicTacToe,719.6,354.2,0.1,-4.1,28.6,366,722,1536,4.4,-0.7,atest,0.5
2022-04-17 16:26:01,TicTacToe,731.2,328.6,0.1,-4.1,28.7,367,722,1536,4.7,-0.6,atest,0.4
2022-04-17 16:26:01,TicTacToe,742.4,322.6,0,-4.1,28.8,368,722,1536,3.9,-0.4,atest,0.4
2022-04-17 16:26:01,TicTacToe,748.8,311.2,0,-4.1,28.9,369,722,1536,3.3,-0.3,atest,0.4
2022-04-17 16:26:01,TicTacToe,751.8,309.4,0,-4.1,28.9,370,722,1536,3.2,-0.3,atest,0.4
2022-04-17 16:26:01,TicTacToe,758.4,312.6,0.1,-4.1,28.9,371,722,1536,3,-0.4,atest,0.4
2022-04-17 16:26:01,TicTacToe,765.6,314.8,0.1,-4.1,28.9,372,722,1536,2.9,-0.4,atest,0.3
2022-04-17 16:26:01,TicTacToe,768.8,318.8,0.1,-4.1,28.9,373,722,1536,2.9,-0.3,atest,0.3
2022-04-17 16:26:01,TicTacToe,774.8,320.8,0.1,-4.1,28.9,374,722,1536,2.9,-0.3,atest,0.3
2022-04-17 16:26:01,TicTacToe,790.2,295.6,0.1,-4.1,28.9,375,722,1536,3,-0.1,atest,0.3
2022-04-17 16:26:01,TicTacToe,801.8,250,0.1,-4.1,28.9,376,722,1536,2.9,-0.1,atest,0.3
2022-04-17 16:26:01,TicTacToe,807.2,236.4,0,-4.1,28.9,377,722,1536,2.8,-0.1,atest,0.3
2022-04-17 16:26:01,TicTacToe,810.8,226,0,-4.1,28.9,378,722,1536,2.8,-0.2,atest,0.3
2022-04-17 16:26:01,TicTacToe,812.8,217.6,0,-4.1,28.9,379,722,1536,2.8,-0.2,atest,0.3
2022-04-17 16:26:01,TicTacToe,815,210.8,0,-4.1,29,380,722,1536,2.7,-0.2,atest,0.3
2022-04-17 16:26:01,TicTacToe,816.8,203.6,0,-4.1,29,381,722,1536,2.7,-0.2,atest,0.2
2022-04-17 16:26:01,TicTacToe,816,192.2,0,-4.1,28.9,382,722,1536,3.2,-0.5,atest,0.8
2022-04-17 16:26:01,TicTacToe,813.6,190.4,0,-4.1,28.9,383,722,1536,3.2,-0.5,atest,0.8
2022-04-17 16:26:01,TicTacToe,813.2,188.6,0,-4.1,28.8,384,722,1536,3.3,-0.5,atest,0.8
2022-04-17 16:26:01,TicTacToe,812.8,185.8,0,-4.1,28.8,385,722,1536,3.3,-0.5,atest,0.8
2022-04-17 16:26:01,TicTacToe,810,182.6,0,-4.1,28.8,386,722,1536,3.3,-0.5,atest,0.8
2022-04-17 16:26:01,TicTacToe,806.6,177.6,0,-4.1,28.7,387,722,1536,3.3,-0.5,atest,0.8
2022-04-17 16:26:01,TicTacToe,802.6,163.8,0,-4.1,28.7,388,722,1536,3.3,-0.5,atest,0.8
2022-04-17 16:26:02,TicTacToe,792,158.6,0,-4.1,28.8,389,722,1536,3.3,-0.5,atest,0.8
2022-04-17 16:26:02,TicTacToe,797.8,162,0,-4.1,28.7,390,722,1536,3.3,-0.5,atest,0.8
2022-04-17 16:26:02,TicTacToe,785,158.8,0,-4.1,28.8,391,722,1536,3.3,-0.5,atest,0.8
2022-04-17 16:26:02,TicTacToe,783.8,159.6,0,-4.1,28.8,392,722,1536,3.3,-0.4,atest,0.8
2022-04-17 16:26:02,TicTacToe,781.8,161.2,0,-4.2,28.8,393,722,1536,3.3,-0.3,atest,0.8
2022-04-17 16:26:02,TicTacToe,782.6,160,0,-4.2,28.8,394,722,1536,3.3,-0.3,atest,0.8
2022-04-17 16:26:02,TicTacToe,784.4,160.4,0,-4.2,28.8,395,722,1536,3.3,-0.3,atest,0.8
2022-04-17 16:26:02,TicTacToe,784.2,161.2,0,-4.2,28.8,396,722,1536,3.3,-0.3,atest,0.7
2022-04-17 16:26:02,TicTacToe,784.4,158.4,0,-4.2,28.8,397,722,1536,3.4,-0.3,atest,0.7
2022-04-17 16:26:02,TicTacToe,785.6,155.8,0,-4.1,28.8,398,722,1536,3.4,-0.3,atest,0.6
2022-04-17 16:26:02,TicTacToe,787,153.6,0,-4.1,28.8,399,722,1536,3.3,-0.3,atest,0.6
2022-04-17 16:26:02,TicTacToe,786.6,152.6,0,-4.1,28.8,400,722,1536,3.3,-0.3,atest,0.6
2022-04-17 16:26:02,TicTacToe,788.4,155,0,-4.1,28.7,401,722,1536,3.1,-0.4,atest,0.5
2022-04-17 16:26:02,TicTacToe,790.4,160.2,0,-4.1,28.7,402,722,1536,3,-0.5,atest,0.5
2022-04-17 16:26:02,TicTacToe,791,162.6,0,-4.1,28.7,403,722,1536,3,-0.4,atest,0.5
2022-04-17 16:26:02,TicTacToe,789.4,166.6,0,-4.1,28.7,404,722,1536,2.9,-0.5,atest,0.5
2022-04-17 16:26:02,TicTacToe,789,172,0,-4.1,28.7,405,722,1536,2.8,-0.6,atest,0.5
2022-04-17 16:26:02,TicTacToe,786.8,176.4,0,-4.1,28.7,406,722,1536,2.8,-0.6,atest,0.5
2022-04-17 16:26:02,TicTacToe,784.2,191.8,0,-4.1,28.7,407,722,1536,2.7,-0.5,atest,0.5
2022-04-17 16:26:02,TicTacToe,782.8,189.4,-0.1,-4,28.6,408,722,1536,2.7,-0.8,atest,0.7
2022-04-17 16:26:02,TicTacToe,782.4,179.2,-0.2,-3.9,28.3,409,722,1536,2.7,-1,atest,0.1
2022-04-17 16:26:02,TicTacToe,778,172.6,-0.3,-3.9,28.5,410,722,1536,2.8,-1.2,atest,0
2022-04-17 16:26:02,TicTacToe,775.4,168.8,-0.3,-3.9,28.4,411,722,1536,2.8,-1.3,atest,0.2
2022-04-17 16:26:02,TicTacToe,772.6,166.8,-0.3,-3.9,28.4,412,722,1536,2.7,-1.3,atest,0.1
2022-04-17 16:26:03,TicTacToe,772.6,163.8,-0.3,-3.9,28.4,413,722,1536,2.9,-1.4,atest,0.3
2022-04-17 16:26:03,TicTacToe,771.2,162.8,-0.3,-3.9,28.4,414,722,1536,2.9,-1.6,atest,0.4
2022-04-17 16:26:03,TicTacToe,775.2,161,-0.4,-3.9,28.5,415,722,1536,2.9,-1.7,atest,0.3
2022-04-17 16:26:03,TicTacToe,777.6,167.4,-0.6,-3.9,28.7,416,722,1536,2.7,-1.3,atest,0.4
2022-04-17 16:26:03,TicTacToe,780.6,196.4,-0.7,-3.9,28.6,417,722,1536,2.8,-1.2,atest,0.3
2022-04-17 16:26:03,TicTacToe,782.2,210.6,-0.7,-3.9,28.6,418,722,1536,2.8,-1.1,atest,0.2
2022-04-17 16:26:03,TicTacToe,781.2,219.6,-0.7,-3.9,28.6,419,722,1536,2.7,-1.2,atest,0.4
2022-04-17 16:26:03,TicTacToe,780.6,224.2,-0.7,-3.8,28.6,420,722,1536,2.6,-1.2,atest,0.4
2022-04-17 16:26:03,TicTacToe,777.6,227.6,-0.7,-3.8,28.6,421,722,1536,2.6,-1.3,atest,0.4
2022-04-17 16:26:03,TicTacToe,776.8,234,-0.7,-3.9,28.8,422,722,1536,2.7,-1.4,atest,0.5
2022-04-17 16:26:03,TicTacToe,777,237.8,-0.6,-3.9,28.9,423,722,1536,2.6,-1.4,atest,0.3
2022-04-17 16:26:03,TicTacToe,777.2,241.6,-0.6,-3.9,28.9,424,722,1536,2.6,-1.4,atest,0.3
2022-04-17 16:26:03,TicTacToe,774.2,242,-0.6,-3.9,28.9,425,722,1536,2.7,-1.4,atest,0.3
2022-04-17 16:26:03,TicTacToe,774.8,246.8,-0.6,-3.9,28.9,426,722,1536,2.7,-1.4,atest,0.3
2022-04-17 16:26:03,TicTacToe,775.6,251.8,-0.6,-3.9,28.9,427,722,1536,2.7,-1.4,atest,0.3
2022-04-17 16:26:03,TicTacToe,774,252,-0.6,-3.9,28.9,428,722,1536,2.7,-1.4,atest,0.3
2022-04-17 16:26:03,TicTacToe,772.8,256.8,-0.6,-3.9,28.9,429,722,1536,2.8,-1.3,atest,0.3
2022-04-17 16:26:03,TicTacToe,772.2,260.6,-0.6,-3.9,28.9,430,722,1536,2.7,-1.4,atest,0.3
2022-04-17 16:26:03,TicTacToe,771.4,263.6,-0.6,-3.9,28.9,431,722,1536,2.8,-1.4,atest,0.3
2022-04-17 16:26:03,TicTacToe,771.4,262,-0.6,-3.9,28.9,432,722,1536,2.8,-1.3,atest,0.3
2022-04-17 16:26:03,TicTacToe,771,260.6,-0.6,-3.9,28.9,433,722,1536,2.8,-1.2,atest,0.3
2022-04-17 16:26:03,TicTacToe,773.4,257.6,-0.6,-3.9,28.9,434,722,1536,2.9,-1.2,atest,0.3
2022-04-17 16:26:03,TicTacToe,776.2,255.8,-0.6,-3.9,28.9,435,722,1536,2.8,-1.1,atest,0.3
2022-04-17 16:26:03,TicTacToe,783.2,257,-0.7,-3.9,29.1,436,722,1536,2.8,-1.1,atest,0.1
2022-04-17 16:26:04,TicTacToe,791.8,256.8,-0.8,-3.9,29.1,437,722,1536,2.6,-1.2,atest,-0.4
2022-04-17 16:26:04,TicTacToe,800,256.6,-0.9,-3.9,29.1,438,722,1536,2.3,-1.5,atest,-0.3
2022-04-17 16:26:04,TicTacToe,802.4,256.6,-0.9,-3.9,29.1,439,722,1536,2.3,-1.6,atest,-0.2
2022-04-17 16:26:04,TicTacToe,806.4,258.6,-0.9,-3.9,29.1,440,722,1536,2.2,-1.6,atest,-0.3
2022-04-17 16:26:04,TicTacToe,811,259.8,-0.9,-3.9,29,441,722,1536,2.2,-1.5,atest,-0.4
2022-04-17 16:26:04,TicTacToe,815.6,261,-1,-3.9,28.9,442,722,1536,2.2,-1.6,atest,-0.3
2022-04-17 16:26:04,TicTacToe,820.8,263,-1,-3.9,28.8,443,722,1536,2.2,-1.6,atest,-0.3
2022-04-17 16:26:04,TicTacToe,823.4,299.2,-1.1,-3.9,28.8,444,722,1536,2.1,-1.6,atest,-0.8
2022-04-17 16:26:04,TicTacToe,825.2,312.2,-1.1,-3.9,28.8,445,722,1536,2.1,-1.7,atest,-0.5
2022-04-17 16:26:04,TicTacToe,824.2,321,-1.1,-3.9,28.7,446,722,1536,2.1,-1.7,atest,-0.5
2022-04-17 16:26:04,TicTacToe,826.4,334.2,-1.1,-3.8,28.6,447,722,1536,2.2,-1.8,atest,-0.5
2022-04-17 16:26:04,TicTacToe,823.6,346,-1.1,-3.8,28.6,448,722,1536,2.3,-1.7,atest,-0.5
2022-04-17 16:26:04,TicTacToe,817.2,361.6,-1.1,-3.8,28.6,449,722,1536,2.3,-1.7,atest,-0.5
2022-04-17 16:26:04,TicTacToe,811.8,378.2,-1.1,-3.8,28.6,450,722,1536,2.3,-1.7,atest,-0.5
2022-04-17 16:26:04,TicTacToe,801.6,408,-1.1,-3.8,28.7,451,722,1536,2.3,-1.7,atest,-0.5
2022-04-17 16:26:04,TicTacToe,796.8,410.6,-1.1,-3.8,28.7,452,722,1536,2.3,-1.6,atest,-0.6
2022-04-17 16:26:04,TicTacToe,793.4,411.6,-1.1,-3.8,28.7,453,722,1536,2.3,-1.6,atest,-0.6
2022-04-17 16:26:04,TicTacToe,792.6,413.4,-1.1,-3.8,28.7,454,722,1536,2.3,-1.6,atest,-0.6
2022-04-17 16:26:04,TicTacToe,793.2,414.4,-1.1,-3.8,28.7,455,722,1536,2.3,-1.7,atest,-0.6
2022-04-17 16:26:04,TicTacToe,792.6,417.6,-1.1,-3.8,28.7,456,722,1536,2.4,-1.7,atest,-0.6
2022-04-17 16:26:04,TicTacToe,792.6,422.2,-1.1,-3.9,28.7,457,722,1536,2.4,-1.7,atest,-0.6
2022-04-17 16:26:04,TicTacToe,790.4,428.6,-1.1,-3.9,28.7,458,722,1536,2.4,-1.7,atest,-0.6
2022-04-17 16:26:04,TicTacToe,789.2,436,-1.1,-3.9,28.8,459,722,1536,2.4,-1.8,atest,-0.6
2022-04-17 16:26:05,TicTacToe,789.6,440.2,-1.1,-3.9,28.8,460,722,1536,2.4,-1.8,atest,-0.6
2022-04-17 16:26:05,TicTacToe,788.2,445.6,-1.1,-3.9,28.8,461,722,1536,2.3,-1.8,atest,-0.6
2022-04-17 16:26:05,TicTacToe,788,449.4,-1.1,-3.9,28.8,462,722,1536,2.3,-1.8,atest,-0.6
2022-04-17 16:26:05,TicTacToe,788,452,-1.1,-3.9,28.8,463,722,1536,2.3,-1.9,atest,-0.6
2022-04-17 16:26:05,TicTacToe,788.2,455.4,-1.1,-3.9,28.8,464,722,1536,2.3,-1.9,atest,-0.6
2022-04-17 16:26:05,TicTacToe,790.4,455.4,-1.1,-3.9,28.8,465,722,1536,2.2,-1.9,atest,-0.6
2022-04-17 16:26:05,TicTacToe,798.4,447.2,-1.1,-3.9,28.8,466,722,1536,2.2,-1.9,atest,-0.6
2022-04-17 16:26:05,TicTacToe,801.2,445.6,-1.1,-3.9,28.8,467,722,1536,2.2,-1.8,atest,-0.6
2022-04-17 16:26:05,TicTacToe,800.6,440.2,-1.1,-3.9,28.9,468,722,1536,2.2,-1.8,atest,-0.7
2022-04-17 16:26:05,TicTacToe,803,434.6,-1.1,-3.9,28.9,469,722,1536,2.1,-1.7,atest,-0.7
2022-04-17 16:26:05,TicTacToe,807.4,431.8,-1,-3.9,28.9,470,722,1536,2.2,-1.6,atest,-0.7
2022-04-17 16:26:05,TicTacToe,785.8,430.2,-1.1,-3.9,28.6,471,722,1536,2.4,-1.8,atest,-0.4
2022-04-17 16:26:05,TicTacToe,781,415,-1,-3.9,28.8,472,722,1536,2.5,-1.9,atest,-0.4
2022-04-17 16:26:05,TicTacToe,778.2,407.2,-1,-3.9,28.7,473,722,1536,2.4,-1.9,atest,-0.6
2022-04-17 16:26:05,TicTacToe,790.4,390.8,-1,-3.9,28.8,474,722,1536,2.2,-1.9,atest,-0.5
2022-04-17 16:26:05,TicTacToe,792.8,381.2,-1,-3.9,28.8,475,722,1536,2.3,-1.9,atest,-0.5
2022-04-17 16:26:05,TicTacToe,794.4,372.2,-1,-3.9,28.8,476,722,1536,2.3,-2,atest,-0.5
2022-04-17 16:26:05,TicTacToe,793.8,357.6,-1,-3.9,28.8,477,722,1536,2.3,-2.1,atest,-0.4
2022-04-17 16:26:05,TicTacToe,785.4,333.4,-1,-3.9,28.9,478,722,1536,2.1,-2.1,atest,-0.3
2022-04-17 16:26:05,TicTacToe,792.8,225.8,-0.9,-4.1,29.1,479,722,1536,2.4,-2,atest,-0.5
2022-04-17 16:26:05,TicTacToe,789.6,181,-0.9,-4.1,29.1,480,722,1536,2.3,-2.1,atest,-0.5
2022-04-17 16:26:05,TicTacToe,787.4,170.6,-0.9,-4.1,29.1,481,722,1536,2.2,-2.1,atest,-0.3
2022-04-17 16:26:05,TicTacToe,785.8,168.8,-0.9,-4.1,29.1,482,722,1536,2.1,-2.1,atest,-0.3
2022-04-17 16:26:06,TicTacToe,786.8,159.4,-0.9,-4.1,29.1,483,722,1536,2.1,-2.2,atest,-0.2
2022-04-17 16:26:06,TicTacToe,787.6,152.4,-0.9,-4.1,29.1,484,722,1536,2.1,-2.1,atest,-0.3
2022-04-17 16:26:06,TicTacToe,793.4,130.6,-1,-4.1,29,485,722,1536,1.4,-1.9,atest,0
2022-04-17 16:26:06,TicTacToe,786.8,132.2,-1,-4.1,29.1,486,722,1536,1.5,-1.4,atest,-0.2
2022-04-17 16:26:06,TicTacToe,786.8,145.6,-1.1,-4.1,29.1,487,722,1536,1.5,-1.2,atest,-0.3
2022-04-17 16:26:06,TicTacToe,790.2,145,-1.1,-4,29.2,488,722,1536,0.9,-1.3,atest,-0.6
2022-04-17 16:26:06,TicTacToe,785,154,-1.1,-4,29.2,489,722,1536,1.4,-1.5,atest,-0.1
2022-04-17 16:26:06,TicTacToe,788.4,149.6,-1.1,-4,29.4,490,722,1536,1.1,-1.4,atest,0
2022-04-17 16:26:06,TicTacToe,789.4,146.4,-1.1,-4,29.3,491,722,1536,1.3,-1.3,atest,-0.2
2022-04-17 16:26:06,TicTacToe,791.2,151.6,-1.2,-3.9,29.2,492,722,1536,1.6,-1.4,atest,-0.7
2022-04-17 16:26:06,TicTacToe,798.6,153.8,-1.1,-3.9,29.4,493,722,1536,1.3,-1.2,atest,-0.4
2022-04-17 16:26:06,TicTacToe,799.6,157.2,-1.1,-3.9,29.2,494,722,1536,1.5,-1.1,atest,-0.3
2022-04-17 16:26:06,TicTacToe,799.4,161,-1.1,-3.9,29.3,495,722,1536,1.2,-0.9,atest,-0.2
2022-04-17 16:26:06,TicTacToe,792.8,165.2,-1,-3.9,29.4,496,722,1536,1.1,-1,atest,-0.2
2022-04-17 16:26:06,TicTacToe,784,165.6,-1,-3.9,29.4,497,722,1536,1.2,-1,atest,-0.2
2022-04-17 16:26:06,TicTacToe,773,168.2,-0.8,-3.9,29.2,498,722,1536,2,-1.1,atest,0.1
2022-04-17 16:26:06,TicTacToe,774.8,162.6,-0.7,-3.8,29.4,499,722,1536,2.1,-0.5,atest,-0.1
2022-04-17 16:26:06,TicTacToe,768.6,161.6,-0.6,-3.8,29.5,500,722,1536,0.9,-0.9,atest,-0.1
2022-04-17 16:26:06,TicTacToe,779,167,-0.6,-3.8,29.2,501,722,1536,0.9,-0.5,atest,0
2022-04-17 16:26:06,TicTacToe,779,174.8,-0.6,-3.7,29.1,502,722,1536,1.4,-0.3,atest,0.1
2022-04-17 16:26:07,TicTacToe,782.4,169,-0.4,-3.6,28.8,503,722,1536,1.6,0.6,atest,0.3
2022-04-17 16:26:07,TicTacToe,777.2,168.2,-0.5,-3.7,28.9,504,722,1536,1.4,-0.3,atest,0.5
2022-04-17 16:26:07,TicTacToe,780,188.2,-0.5,-3.6,28.8,505,722,1536,2.1,-0.1,atest,0.7
2022-04-17 16:26:07,TicTacToe,827,390,-0.5,-3.6,28.8,506,722,1536,1.3,-0.4,atest,0.6
2022-04-17 16:26:07,TicTacToe,824.8,385.2,-0.5,-3.6,28.8,507,722,1536,1.6,-0.5,atest,0.5
2022-04-17 16:26:07,TicTacToe,822.2,407.4,-0.5,-3.6,28.9,508,722,1536,1.2,-0.6,atest,0.8
2022-04-17 16:26:07,TicTacToe,818.6,458.2,-0.4,-3.6,28.8,509,722,1536,1.5,-0.3,atest,0.7
2022-04-17 16:26:07,TicTacToe,815,471.4,-0.4,-3.6,28.8,510,722,1536,1.8,-0.1,atest,0.9
2022-04-17 16:26:07,TicTacToe,811.4,477.6,-0.5,-3.6,29.1,511,722,1536,1.2,-0.5,atest,0.6
2022-04-17 16:26:07,TicTacToe,812.4,482.6,-0.5,-3.6,29,512,722,1536,1.5,-0.4,atest,0.5
2022-04-17 16:26:07,TicTacToe,794.6,516.6,-0.5,-3.6,28.8,513,722,1536,1.7,-0.4,atest,0.6
2022-04-17 16:26:07,TicTacToe,790.4,517.4,-0.5,-3.6,29,514,722,1536,1.7,-0.4,atest,0.5
2022-04-17 16:26:07,TicTacToe,791.8,514,-0.5,-3.6,29.1,515,722,1536,1.4,-0.5,atest,0.3
2022-04-17 16:26:07,TicTacToe,788.4,516.6,-0.5,-3.6,29.1,516,722,1536,1.5,-0.7,atest,0.3
2022-04-17 16:26:07,TicTacToe,789.8,515.2,-0.5,-3.6,29.2,517,722,1536,1.7,-0.5,atest,0.6
2022-04-17 16:26:07,TicTacToe,790.8,509.8,-0.4,-3.6,29.3,518,722,1536,1.1,-0.8,atest,0.2
2022-04-17 16:26:07,TicTacToe,790.4,508.8,-0.4,-3.6,29.1,519,722,1536,1.5,-0.7,atest,0.2
2022-04-17 16:26:07,TicTacToe,786.6,513.2,-0.4,-3.6,29.2,520,722,1536,1.7,-0.9,atest,0.3
2022-04-17 16:26:07,TicTacToe,785.6,506.2,-0.4,-3.6,29.2,521,722,1536,1.2,-0.7,atest,0.2
2022-04-17 16:26:07,TicTacToe,783.8,508.2,-0.4,-3.6,29.2,522,722,1536,1.5,-0.6,atest,0.3
2022-04-17 16:26:07,TicTacToe,783,505.6,-0.4,-3.6,29.3,523,722,1536,1.6,-0.6,atest,0.3
2022-04-17 16:26:08,TicTacToe,783.8,506.6,-0.4,-3.6,29.4,524,722,1536,1.5,-0.8,atest,0.5
2022-04-17 16:26:08,TicTacToe,777.8,503.8,-0.3,-3.6,29.1,525,722,1536,1.6,-1,atest,0.6
2022-04-17 16:26:08,TicTacToe,780.8,497,-0.3,-3.6,29,526,722,1536,1.6,-0.8,atest,0.6
2022-04-17 16:26:08,TicTacToe,781,494.2,-0.3,-3.6,29.2,527,722,1536,1.4,-0.9,atest,0.6
2022-04-17 16:26:08,TicTacToe,779.8,496.2,-0.3,-3.6,29,528,722,1536,1.8,-0.9,atest,0.7
2022-04-17 16:26:08,TicTacToe,778.8,494.2,-0.3,-3.6,29.3,529,722,1536,1.6,-0.9,atest,0.6
2022-04-17 16:26:08,TicTacToe,777.8,493.6,-0.3,-3.6,29.2,530,722,1536,1.9,-0.9,atest,0.6
2022-04-17 16:26:08,TicTacToe,771.4,494.2,-0.4,-3.6,29.2,531,722,1536,2,-1,atest,0.6
2022-04-17 16:26:08,TicTacToe,769.6,491.4,-0.4,-3.6,29.1,532,722,1536,1.8,-0.9,atest,0.6
2022-04-17 16:26:08,TicTacToe,766.2,492.8,-0.4,-3.6,29.1,533,722,1536,2.1,-0.8,atest,0.3
2022-04-17 16:26:08,TicTacToe,768.8,491,-0.4,-3.5,29.1,534,722,1536,1.7,-0.9,atest,0.3
2022-04-17 16:26:08,TicTacToe,771,482.6,-0.4,-3.6,29.4,535,722,1536,1.2,-0.9,atest,0.6
2022-04-17 16:26:08,TicTacToe,767.8,476,-0.4,-3.6,29.3,536,722,1536,1.5,-0.9,atest,0.6
2022-04-17 16:26:08,TicTacToe,768.6,476,-0.4,-3.6,29.3,537,722,1536,1.5,-0.9,atest,0.7
2022-04-17 16:26:08,TicTacToe,765.2,475.8,-0.4,-3.6,29.2,538,722,1536,1.5,-1,atest,0.7
2022-04-17 16:26:08,TicTacToe,765,475.8,-0.4,-3.6,29.2,539,722,1536,1.5,-0.9,atest,0.6
2022-04-17 16:26:08,TicTacToe,765.2,476.2,-0.4,-3.6,29.3,540,722,1536,1.7,-0.9,atest,0.6
2022-04-17 16:26:08,TicTacToe,763.4,473.4,-0.4,-3.6,29.1,541,722,1536,1.7,-0.8,atest,0.6
2022-04-17 16:26:08,TicTacToe,764.4,473.8,-0.4,-3.6,29.2,542,722,1536,1.7,-0.9,atest,0.2
2022-04-17 16:26:08,TicTacToe,768,475.2,-0.3,-3.6,29.4,543,722,1536,1.7,-0.9,atest,0.3
2022-04-17 16:26:08,TicTacToe,768.6,474.6,-0.4,-3.6,29.3,544,722,1536,1.6,-1,atest,0.6
2022-04-17 16:26:09,TicTacToe,769.6,471.4,-0.3,-3.6,29.3,545,722,1536,1.6,-0.8,atest,0.7
2022-04-17 16:26:09,TicTacToe,773.6,463,-0.4,-3.6,29.5,546,722,1536,1.6,-0.7,atest,0.4
2022-04-17 16:26:09,TicTacToe,771.6,469.6,-0.4,-3.6,29.4,547,722,1536,1.4,-0.8,atest,0.5
2022-04-17 16:26:09,TicTacToe,771,470.6,-0.4,-3.6,29.4,548,722,1536,1.5,-0.7,atest,0.5
2022-04-17 16:26:09,TicTacToe,775.6,471.6,-0.4,-3.6,29.3,549,722,1536,1.4,-0.6,atest,0.5
2022-04-17 16:26:09,TicTacToe,778.8,475,-0.4,-3.6,29.5,550,722,1536,1.3,-0.7,atest,0.8
2022-04-17 16:26:09,TicTacToe,776.6,475.8,-0.4,-3.6,29.5,551,722,1536,1.4,-0.8,atest,0.9
2022-04-17 16:26:09,TicTacToe,776.6,473.8,-0.4,-3.6,29.4,552,722,1536,1.2,-0.9,atest,0.6
2022-04-17 16:26:09,TicTacToe,777.6,473.2,-0.4,-3.6,29.5,553,722,1536,1.2,-0.9,atest,0.8
2022-04-17 16:26:09,TicTacToe,778.6,470.4,-0.4,-3.6,29.6,554,722,1536,1.5,-0.8,atest,0.8
2022-04-17 16:26:09,TicTacToe,782.8,481.6,-0.4,-3.6,29.5,555,722,1536,1.8,-0.5,atest,0.5
2022-04-17 16:26:09,TicTacToe,777.4,474,-0.4,-3.6,29.5,556,722,1536,1.4,-0.6,atest,0.8
2022-04-17 16:26:09,TicTacToe,778.2,475.2,-0.4,-3.6,29.4,557,722,1536,1.2,-0.5,atest,0.6
2022-04-17 16:26:09,TicTacToe,778.2,477.2,-0.4,-3.6,29.4,558,722,1536,1.2,-0.5,atest,0.6
2022-04-17 16:26:09,TicTacToe,776.6,480.6,-0.4,-3.6,29.5,559,722,1536,1.4,-0.8,atest,0.6
2022-04-17 16:26:09,TicTacToe,780.4,481.6,-0.4,-3.6,29.4,560,722,1536,1.3,-0.8,atest,0.6
2022-04-17 16:26:09,TicTacToe,781.4,486.8,-0.4,-3.6,29.4,561,722,1536,1.7,-0.7,atest,0.6
2022-04-17 16:26:09,TicTacToe,786.4,487.8,-0.4,-3.7,29.5,562,722,1536,1.4,-0.8,atest,0.6
2022-04-17 16:26:09,TicTacToe,785.8,491.8,-0.4,-3.7,29.4,563,722,1536,1.6,-0.7,atest,0.8
2022-04-17 16:26:09,TicTacToe,790.4,489.8,-0.4,-3.7,29.7,564,722,1536,1.3,-1,atest,0.6
2022-04-17 16:26:09,TicTacToe,785.4,496.6,-0.4,-3.7,29.5,565,722,1536,1.4,-0.8,atest,0.7
2022-04-17 16:26:10,TicTacToe,788.4,500,-0.4,-3.7,29.5,566,722,1536,1.4,-0.8,atest,0.7
2022-04-17 16:26:10,TicTacToe,793.2,502,-0.4,-3.7,29.6,567,722,1536,1.3,-0.8,atest,0.7
2022-04-17 16:26:10,TicTacToe,796.6,505.2,-0.4,-3.7,29.5,568,722,1536,1.2,-1.1,atest,0.6
2022-04-17 16:26:10,TicTacToe,797.2,507.2,-0.4,-3.6,29.4,569,722,1536,1.3,-0.7,atest,0.8
2022-04-17 16:26:10,TicTacToe,749.4,502.2,-0.4,-3.7,29.4,570,722,1536,0.9,-1,atest,0.8
2022-04-17 16:26:10,TicTacToe,720.6,497.8,-0.3,-3.7,29.4,571,722,1536,1,-0.8,atest,0.7
2022-04-17 16:26:10,TicTacToe,469,354,-0.3,-3.7,29.4,572,722,1536,1.1,-0.3,atest,1
2022-04-17 16:26:10,TicTacToe,451.2,313.8,-0.3,-3.7,29.5,573,722,1536,0.9,-0.3,atest,0.9
2022-04-17 16:26:10,TicTacToe,443.2,302,-0.3,-3.7,29.2,574,722,1536,0.9,-0.2,atest,1
2022-04-17 16:26:10,TicTacToe,434.2,292,-0.3,-3.7,29.4,575,722,1536,0.8,-0.3,atest,0.9
2022-04-17 16:26:10,TicTacToe,424.8,278.6,-0.3,-3.7,29.2,576,722,1536,1.1,-0.1,atest,0.7
2022-04-17 16:26:10,TicTacToe,417,270,-0.3,-3.7,29.3,577,722,1536,1.1,0,atest,0.8
2022-04-17 16:26:10,TicTacToe,401.8,251.8,-0.3,-3.7,29.3,578,722,1536,0.9,0,atest,0.8
2022-04-17 16:26:10,TicTacToe,396,243,-0.3,-3.7,29.2,579,722,1536,1.2,0.2,atest,0.7
2022-04-17 16:26:10,TicTacToe,385.4,239.8,-0.3,-3.7,29.2,580,722,1536,1.2,0,atest,0.7
2022-04-17 16:26:10,TicTacToe,384.2,233,-0.3,-3.7,29.2,581,722,1536,1.2,0.1,atest,0.7
2022-04-17 16:26:10,TicTacToe,379.2,229,-0.3,-3.7,29.3,582,722,1536,1.2,0.3,atest,0.8
2022-04-17 16:26:10,TicTacToe,374.8,222.6,-0.3,-3.7,29.4,583,722,1536,1,0.2,atest,0.9
2022-04-17 16:26:10,TicTacToe,370,218.4,-0.3,-3.7,29.2,584,722,1536,1.3,0.2,atest,0.8
2022-04-17 16:26:10,TicTacToe,368.8,213.2,-0.3,-3.7,29.2,585,722,1536,1.3,0,atest,0.5
2022-04-17 16:26:10,TicTacToe,361.8,207.4,-0.4,-3.7,29.3,586,722,1536,1.2,-0.2,atest,0.5
2022-04-17 16:26:11,TicTacToe,357.2,200,-0.4,-3.7,29.2,587,722,1536,1,0,atest,0.5
2022-04-17 16:26:11,TicTacToe,354.6,196,-0.4,-3.7,29.4,588,722,1536,1.2,0,atest,0.6
2022-04-17 16:26:11,TicTacToe,353.2,188.8,-0.4,-3.7,29.3,589,722,1536,1,0,atest,0.6
2022-04-17 16:26:11,TicTacToe,353.4,179.4,-0.4,-3.7,29.4,590,722,1536,0.5,-0.2,atest,0.6
2022-04-17 16:26:11,TicTacToe,351.4,173.4,-0.3,-3.7,29.2,591,722,1536,0.6,-0.2,atest,0.7
2022-04-17 16:26:11,TicTacToe,352.4,165.6,-0.4,-3.7,29.4,592,722,1536,0.5,-0.2,atest,0.8
2022-04-17 16:26:11,TicTacToe,351,159.8,-0.3,-3.7,29.5,593,722,1536,0.6,-0.1,atest,0.7
2022-04-17 16:26:11,TicTacToe,350.4,159,-0.3,-3.7,29.3,594,722,1536,0.7,-0.1,atest,0.7
2022-04-17 16:26:11,TicTacToe,360,163.2,-0.3,-3.7,29.2,595,722,1536,0.9,0,atest,0.5
2022-04-17 16:26:11,TicTacToe,362.6,162,-0.3,-3.7,29.5,596,722,1536,0.6,0,atest,0.5
2022-04-17 16:26:11,TicTacToe,361.4,165.6,-0.4,-3.7,29.4,597,722,1536,1.1,-0.1,atest,0.9
2022-04-17 16:26:11,TicTacToe,362,164.4,-0.4,-3.7,29.4,598,722,1536,0.8,-0.2,atest,0.7
2022-04-17 16:26:11,TicTacToe,367,166,-0.4,-3.7,29.4,599,722,1536,1,0,atest,0.5
2022-04-17 16:26:11,TicTacToe,366.8,168.6,-0.3,-3.7,29.3,600,722,1536,1.1,0,atest,0.8
2022-04-17 16:26:11,TicTacToe,366.4,169.2,-0.3,-3.7,29.3,601,722,1536,1,-0.1,atest,0.7
2022-04-17 16:26:11,TicTacToe,367,167.6,-0.3,-3.7,29.3,602,722,1536,1,-0.1,atest,0.7
2022-04-17 16:26:11,TicTacToe,368.6,168.2,-0.4,-3.7,29.4,603,722,1536,0.7,-0.2,atest,0.6
2022-04-17 16:26:11,TicTacToe,367.2,164.4,-0.3,-3.7,29.3,604,722,1536,0.6,-0.3,atest,0.6
2022-04-17 16:26:11,TicTacToe,366.4,162.2,-0.3,-3.7,29.2,605,722,1536,0.6,-0.3,atest,0.6
2022-04-17 16:26:11,TicTacToe,362.2,162.4,-0.3,-3.7,29.5,606,722,1536,0.7,-0.3,atest,0.9
2022-04-17 16:26:11,TicTacToe,403.4,182.2,-0.4,-3.6,29.2,607,722,1536,0.7,-0.4,atest,0.6
2022-04-17 16:26:12,TicTacToe,525.2,214.2,-0.4,-3.6,29.1,608,722,1536,0.9,-0.5,atest,0.6
2022-04-17 16:26:12,TicTacToe,541.4,223,-0.4,-3.6,29.1,609,722,1536,1,-0.6,atest,0.9
2022-04-17 16:26:12,TicTacToe,557.2,222.6,-0.4,-3.6,29.1,610,722,1536,0.8,-0.5,atest,0.7
2022-04-17 16:26:12,TicTacToe,559.2,220.6,-0.4,-3.7,29.4,611,722,1536,0.9,-0.8,atest,0.2
2022-04-17 16:26:12,TicTacToe,564.2,219.2,-0.4,-3.7,29.3,612,722,1536,0.9,-0.7,atest,0.5
2022-04-17 16:26:12,TicTacToe,557.6,224,-0.4,-3.7,29.2,613,722,1536,1,-0.6,atest,0.6
2022-04-17 16:26:12,TicTacToe,543,232.2,-0.4,-3.7,29.4,614,722,1536,1.1,-0.7,atest,0.5
2022-04-17 16:26:12,TicTacToe,531.4,252.8,-0.3,-3.7,29.3,615,722,1536,1.8,-0.6,atest,0.5
2022-04-17 16:26:12,TicTacToe,518.2,269.2,-0.4,-3.7,29.3,616,722,1536,1.9,-0.6,atest,0.2
2022-04-17 16:26:12,TicTacToe,513.6,267.6,-0.3,-3.7,29.1,617,722,1536,1.5,-0.7,atest,0.3
2022-04-17 16:26:12,TicTacToe,512.6,266.6,-0.3,-3.7,29.3,618,722,1536,1.5,-0.6,atest,0.2
2022-04-17 16:26:12,TicTacToe,517.6,278,-0.3,-3.7,29.3,619,722,1536,1.4,-0.5,atest,0.2
2022-04-17 16:26:12,TicTacToe,508.8,279.8,-0.4,-3.7,29.2,620,722,1536,1.7,-0.5,atest,0.2
2022-04-17 16:26:12,TicTacToe,508.4,282.2,-0.4,-3.7,29.1,621,722,1536,1.6,-0.5,atest,0.1
2022-04-17 16:26:12,TicTacToe,502,287.8,-0.4,-3.7,29.1,622,722,1536,1.5,-0.6,atest,0.1
2022-04-17 16:26:12,TicTacToe,498,293.2,-0.4,-3.7,29.2,623,722,1536,1.5,-0.5,atest,0.2
2022-04-17 16:26:12,TicTacToe,490.2,296.8,-0.4,-3.7,29.2,624,722,1536,1.5,-0.6,atest,0.2
2022-04-17 16:26:12,TicTacToe,481.6,302.4,-0.4,-3.7,29.3,625,722,1536,1.4,-0.7,atest,0.2
2022-04-17 16:26:12,TicTacToe,480.2,304.2,-0.4,-3.7,29.2,626,722,1536,1.3,-0.6,atest,0.2
2022-04-17 16:26:12,TicTacToe,480.8,302,-0.4,-3.7,29.3,627,722,1536,1.2,-0.7,atest,0.2
2022-04-17 16:26:12,TicTacToe,484.6,299.8,-0.4,-3.7,29.2,628,722,1536,1.2,-0.5,atest,0.2
2022-04-17 16:26:13,TicTacToe,487.4,294.4,-0.4,-3.7,29.4,629,722,1536,1.3,-0.4,atest,0.2
2022-04-17 16:26:13,TicTacToe,489.8,292,-0.4,-3.7,29.1,630,722,1536,1.6,-0.4,atest,0.2
2022-04-17 16:26:13,TicTacToe,481.2,294.6,-0.4,-3.7,29.2,631,722,1536,1.7,-0.5,atest,0.3
2022-04-17 16:26:13,TicTacToe,476,297,-0.4,-3.7,29.2,632,722,1536,1.8,-0.6,atest,0.3
2022-04-17 16:26:13,TicTacToe,472.2,294.4,-0.4,-3.7,29.2,633,722,1536,1.4,-0.7,atest,0.3
2022-04-17 16:26:13,TicTacToe,467.8,297.6,-0.4,-3.7,29.4,634,722,1536,1.6,-0.6,atest,0.2
2022-04-17 16:26:13,TicTacToe,468.2,295.8,-0.4,-3.7,29.3,635,722,1536,1.5,-0.5,atest,0.2
2022-04-17 16:26:13,TicTacToe,469.2,296.4,-0.4,-3.7,29.2,636,722,1536,1.7,-0.8,atest,0.5
2022-04-17 16:26:13,TicTacToe,472.6,290.8,-0.4,-3.7,29.2,637,722,1536,1.6,-0.8,atest,0.2
2022-04-17 16:26:13,TicTacToe,479.4,287.2,-0.4,-3.7,29.2,638,722,1536,1.6,-0.8,atest,0.1
2022-04-17 16:26:13,TicTacToe,528,280.6,-0.4,-3.7,29.3,639,722,1536,1.5,-0.7,atest,0.2
2022-04-17 16:26:13,TicTacToe,935,197,-0.5,-3.6,29.1,640,722,1536,1.6,-1.1,atest,0.6
2022-04-17 16:26:13,TicTacToe,954,199.2,-0.5,-3.6,29.2,641,722,1536,1.3,-1,atest,0.5
2022-04-17 16:26:13,TicTacToe,961.8,204.6,-0.5,-3.6,29.2,642,722,1536,1.3,-1,atest,0.5
2022-04-17 16:26:13,TicTacToe,977,204.4,-0.5,-3.6,29,643,722,1536,1.4,-1,atest,0.6
2022-04-17 16:26:13,TicTacToe,991,205.6,-0.5,-3.6,29.1,644,722,1536,1.7,-0.9,atest,0.6
2022-04-17 16:26:13,TicTacToe,983.4,210,-0.5,-3.6,29.2,645,722,1536,1.6,-1.1,atest,0.5
2022-04-17 16:26:13,TicTacToe,1007.6,206.4,-0.5,-3.6,29.3,646,722,1536,1.5,-1,atest,0.8
2022-04-17 16:26:13,TicTacToe,1008.8,207,-0.5,-3.6,29.4,647,722,1536,1.5,-1.1,atest,0.5
2022-04-17 16:26:13,TicTacToe,1010.4,206.8,-0.5,-3.6,29.4,648,722,1536,1.4,-1.1,atest,0.5
2022-04-17 16:26:13,TicTacToe,1011.4,207.4,-0.5,-3.6,29.3,649,722,1536,1.5,-1,atest,0.6
2022-04-17 16:26:14,TicTacToe,1011,207,-0.5,-3.6,29.3,650,722,1536,1.6,-1,atest,0.5
2022-04-17 16:26:14,TicTacToe,1009,211.6,-0.5,-3.6,29.3,651,722,1536,1.6,-1.2,atest,0.5
2022-04-17 16:26:14,TicTacToe,1012.6,213,-0.5,-3.6,29.3,652,722,1536,1.5,-1,atest,0.5
2022-04-17 16:26:14,TicTacToe,1011,217.2,-0.5,-3.6,29.3,653,722,1536,1.7,-1.3,atest,0.6
2022-04-17 16:26:14,TicTacToe,1012.2,219.4,-0.5,-3.6,29.4,654,722,1536,1.6,-1.1,atest,0.7
2022-04-17 16:26:14,TicTacToe,1010.6,222.6,-0.5,-3.6,29.2,655,722,1536,1.7,-1.2,atest,0.6
2022-04-17 16:26:14,TicTacToe,1012.2,221.4,-0.5,-3.6,29.2,656,722,1536,1.6,-1.1,atest,0.6
2022-04-17 16:26:14,TicTacToe,1007.8,220,-0.5,-3.6,29.3,657,722,1536,1.3,-1.2,atest,0.7
2022-04-17 16:26:14,TicTacToe,1010.4,225.6,-0.5,-3.6,29.3,658,722,1536,1.8,-1.1,atest,0.7
2022-04-17 16:26:14,TicTacToe,1008.2,230,-0.5,-3.6,29.3,659,722,1536,1.5,-1.1,atest,0.6
2022-04-17 16:26:14,TicTacToe,1004.2,235.2,-0.5,-3.6,29.3,660,722,1536,1.6,-1.2,atest,0.8
2022-04-17 16:26:14,TicTacToe,1005.8,240.8,-0.5,-3.6,29.2,661,722,1536,1.5,-1.1,atest,0.7
2022-04-17 16:26:14,TicTacToe,1001.4,243.4,-0.5,-3.6,29.2,662,722,1536,1.5,-1.1,atest,0.7
2022-04-17 16:26:14,TicTacToe,999.4,246.4,-0.5,-3.6,29.2,663,722,1536,1.4,-1.1,atest,0.7
2022-04-17 16:26:14,TicTacToe,994,251.4,-0.5,-3.6,29.2,664,722,1536,1.3,-1.2,atest,0.6
2022-04-17 16:26:14,TicTacToe,991.4,251.2,-0.5,-3.5,29.2,665,722,1536,1.1,-1.2,atest,0.7
2022-04-17 16:26:14,TicTacToe,992,260,-0.5,-3.5,29.1,666,722,1536,1.4,-1.1,atest,0.5
2022-04-17 16:26:14,TicTacToe,994,263.6,-0.5,-3.5,29.2,667,722,1536,1.3,-1.1,atest,0.6
2022-04-17 16:26:14,TicTacToe,995.2,268.6,-0.5,-3.5,29.2,668,722,1536,1.5,-1.1,atest,0.7
2022-04-17 16:26:14,TicTacToe,995.2,273.4,-0.5,-3.5,29,669,722,1536,1.6,-1,atest,0.7
2022-04-17 16:26:14,TicTacToe,995.6,278.4,-0.5,-3.5,29,670,722,1536,1.5,-1,atest,0.7
2022-04-17 16:26:14,TicTacToe,1018,277.4,-0.5,-3.5,29.2,671,722,1536,1.7,-1,atest,0.6
2022-04-17 16:26:14,TicTacToe,1268,122,-0.5,-3.5,29.4,672,722,1536,1.5,-1.2,atest,0.8
2022-04-17 16:26:15,TicTacToe,1274.2,125.4,-0.5,-3.5,29.4,673,722,1536,1.3,-1.3,atest,0.7
2022-04-17 16:26:15,TicTacToe,1271.6,121.2,-0.5,-3.5,29.5,674,722,1536,1.6,-1.3,atest,0.9
2022-04-17 16:26:15,TicTacToe,1260,127.6,-0.5,-3.5,29.2,675,722,1536,1.5,-1.2,atest,0.7
2022-04-17 16:26:15,TicTacToe,1270.2,113.6,-0.5,-3.5,29.4,676,722,1536,1.1,-1.2,atest,0.7
2022-04-17 16:26:15,TicTacToe,1281.4,98.8,-0.5,-3.5,29.2,677,722,1536,1.6,-1.3,atest,0.7
2022-04-17 16:26:15,TicTacToe,1283.8,88.4,-0.5,-3.5,29.2,678,722,1536,1.5,-1.4,atest,0.7
2022-04-17 16:26:15,TicTacToe,1286.6,73.8,-0.5,-3.5,29.3,679,722,1536,1.6,-1.3,atest,0.7
2022-04-17 16:26:15,TicTacToe,1285,58.4,-0.5,-3.5,29.5,680,722,1536,1.3,-1.1,atest,0.7
2022-04-17 16:26:15,TicTacToe,1280,55.4,-0.6,-3.5,29.2,681,722,1536,1.4,-1.2,atest,0.7
2022-04-17 16:26:15,TicTacToe,1278.2,53.2,-0.6,-3.5,29.1,682,722,1536,1.4,-1.1,atest,0.6
2022-04-17 16:26:15,TicTacToe,1279.6,56.8,-0.6,-3.5,29.3,683,722,1536,1.5,-1.2,atest,0.5
2022-04-17 16:26:15,TicTacToe,1282,58.4,-0.6,-3.5,29.4,684,722,1536,1.3,-1.3,atest,0.5
2022-04-17 16:26:15,TicTacToe,1278.2,58.8,-0.6,-3.5,29.4,685,722,1536,1.2,-1.3,atest,0.7
2022-04-17 16:26:15,TicTacToe,1273,52.8,-0.6,-3.5,29.5,686,722,1536,1.3,-1.2,atest,0.7
2022-04-17 16:26:15,TicTacToe,1271.2,44.2,-0.6,-3.5,29.4,687,722,1536,1.2,-1.2,atest,0.6
2022-04-17 16:26:16,TicTacToe,1268.2,40.8,-0.6,-3.5,29.4,688,722,1536,1.4,-1.3,atest,0.6
2022-04-17 16:26:16,TicTacToe,1268,39.8,-0.6,-3.5,29.3,689,722,1536,1.4,-1.2,atest,0.6
