e_datetime,game,gazex,gazey,headx,heady,headz,id,inner_height,inner_width,pitch,roll,u_name,yaw
2022-05-03 13:49:04,Connect4,1422,636,4.1,3.5,65.8,3039,722,1536,0.2,12.3,atest,-2.3
2022-05-03 13:49:11,Connect4,824,482,2.4,-0.6,37.8,3179,722,1536,-0.8,1.7,atest,2.3
2022-05-03 13:49:36,Connect4,537.6,314,-2,-2.6,38.9,3711,722,1536,-7.6,0.7,atest,-1.2
2022-05-03 13:50:06,Connect4,957,437,-2.9,-1.1,40,4313,722,1536,-8,2.2,atest,-4.3
2022-05-03 13:49:04,Connect4,1300.6,688.6,4.1,3.4,65.4,3040,722,1536,0.8,12.3,atest,-2
2022-05-03 13:49:04,Connect4,1457.4,802.4,4.1,3.4,65.3,3041,722,1536,0,12.4,atest,-1.9
2022-05-03 13:49:04,Connect4,1471.2,791.8,4.1,3.4,64.9,3042,722,1536,0.1,12.3,atest,-2
2022-05-03 13:49:04,Connect4,1460,783.2,4.1,3.4,65.1,3043,722,1536,-0.3,12.3,atest,-1.8
2022-05-03 13:49:04,Connect4,1462.2,802.6,4.1,3.4,64.8,3044,722,1536,-0.4,12.4,atest,-1.7
2022-05-03 13:49:04,Connect4,1491.4,816.8,4.1,3.5,65.5,3045,722,1536,-0.8,12.4,atest,-1.8
2022-05-03 13:49:04,Connect4,1942,1219,4.3,4,67.9,3046,722,1536,-1.6,12.2,atest,-1.6
2022-05-03 13:49:04,Connect4,2002.2,1236.6,4.2,3.9,67.3,3047,722,1536,-1,12.2,atest,-1.7
2022-05-03 13:49:04,Connect4,1859.4,1113.8,4.1,3.7,66.1,3048,722,1536,-0.4,12.4,atest,-1.9
2022-05-03 13:49:04,Connect4,1543,865.2,4.1,3.6,65.3,3049,722,1536,-0.4,12.5,atest,-2
2022-05-03 13:49:04,Connect4,1545.6,858.8,4,3.6,64.9,3050,722,1536,-0.8,12.5,atest,-2.1
2022-05-03 13:49:04,Connect4,1552.8,865,4,3.6,64.8,3051,722,1536,-0.5,13.1,atest,-2.2
2022-05-03 13:49:04,Connect4,1559.4,877.6,3.9,3.6,64.6,3052,722,1536,0,13.4,atest,-2.2
2022-05-03 13:49:04,Connect4,1568,879.6,3.9,3.5,64.4,3053,722,1536,-0.7,13.5,atest,-2.4
2022-05-03 13:49:04,Connect4,1569.6,882.2,4,3.6,64.4,3054,722,1536,-0.8,13.2,atest,-2.4
2022-05-03 13:49:04,Connect4,1553.8,855.6,4,3.5,64.7,3055,722,1536,-0.4,12.9,atest,-2.5
2022-05-03 13:49:04,Connect4,1563,879.4,4,3.6,64.6,3056,722,1536,-0.6,12.9,atest,-2.6
2022-05-03 13:49:05,Connect4,1499.6,850.6,4.1,3.3,64.2,3057,722,1536,-1.1,11.4,atest,-2.3
2022-05-03 13:49:05,Connect4,1271.4,811.2,4.2,3.3,64.4,3058,722,1536,-2.3,9.2,atest,-1.6
2022-05-03 13:49:05,Connect4,1372.2,869.4,3.9,3.7,65.1,3059,722,1536,-1.5,7.6,atest,-0.8
2022-05-03 13:49:05,Connect4,1454,866.2,2.3,3.8,65.9,3060,722,1536,-4.4,9.1,atest,-0.2
2022-05-03 13:49:05,Connect4,969,461,1.3,3.2,65.6,3061,722,1536,-5.9,9.4,atest,1.4
2022-05-03 13:49:05,Connect4,271,568,1.7,2.9,65.4,3062,722,1536,2.7,4.9,atest,3.2
2022-05-03 13:49:05,Connect4,673,872.4,1.8,3.9,65.9,3063,722,1536,-3.6,3,atest,2.7
2022-05-03 13:49:05,Connect4,861.6,857,1.7,4.3,69.4,3064,722,1536,-1.8,3.6,atest,0.5
2022-05-03 13:49:05,Connect4,228,190,1.4,3.6,70.9,3065,722,1536,9,2.7,atest,0.2
2022-05-03 13:49:05,Connect4,289.2,355,2.2,3.3,68.8,3066,722,1536,-1,3.4,atest,0.5
2022-05-03 13:49:05,Connect4,982,742,3.2,3,67.3,3067,722,1536,-2.3,3.6,atest,0.8
2022-05-03 13:49:05,Connect4,961.8,893.2,3.5,2.8,65.7,3068,722,1536,-3.5,4.3,atest,0.8
2022-05-03 13:49:05,Connect4,1043,873.2,3.4,2.8,65.3,3069,722,1536,-3.4,4.5,atest,0.1
2022-05-03 13:49:05,Connect4,1248.2,881,3.1,3,65.3,3070,722,1536,-3.1,7,atest,0.2
2022-05-03 13:49:05,Connect4,1253,878.2,2.9,3.1,65.5,3071,722,1536,-2.8,6.5,atest,0.4
2022-05-03 13:49:05,Connect4,1212.8,876.6,2.6,3.4,65.5,3072,722,1536,-3.2,6.1,atest,0.4
2022-05-03 13:49:06,Connect4,1027,555,2.6,3.5,66,3073,722,1536,-3.5,6.5,atest,0.5
2022-05-03 13:49:06,Connect4,1015.2,627,2.5,3.5,66,3074,722,1536,-4.3,6.2,atest,0.6
2022-05-03 13:49:06,Connect4,1036,691,2.5,3.3,65.7,3075,722,1536,-4.5,6.6,atest,0.5
2022-05-03 13:49:06,Connect4,1146.2,784.4,2.5,3.2,65.6,3076,722,1536,-4,7.2,atest,0.4
2022-05-03 13:49:06,Connect4,1287,831.2,2.4,3.2,65.4,3077,722,1536,-4.2,7.7,atest,0.3
2022-05-03 13:49:06,Connect4,1240.4,826,2.5,3.2,65.5,3078,722,1536,-4.3,7.5,atest,0.3
2022-05-03 13:49:06,Connect4,1297.8,823,2.4,3.3,65.5,3079,722,1536,-4.1,7.7,atest,0.3
2022-05-03 13:49:06,Connect4,1286.4,775.2,2.4,3.2,65.7,3080,722,1536,-3.2,7.6,atest,0.3
2022-05-03 13:49:06,Connect4,1286.4,775.2,2.4,3.2,65.7,3081,722,1536,-3.2,7.6,atest,0.3
2022-05-03 13:49:06,Connect4,1286.4,775.2,2.4,3.2,65.7,3082,722,1536,-3.2,7.6,atest,0.3
2022-05-03 13:49:06,Connect4,1286.4,775.2,2.4,3.2,65.7,3083,722,1536,-3.2,7.6,atest,0.3
2022-05-03 13:49:06,Connect4,1230.2,771.8,4.2,-6,61.9,3084,722,1536,6.3,8,atest,0.3
2022-05-03 13:49:06,Connect4,903.2,690.8,4.3,-6,61.5,3085,722,1536,6.8,8,atest,0.2
2022-05-03 13:49:07,Connect4,992.8,627.8,4.3,-6.3,61.6,3086,722,1536,6.9,8.5,atest,0.1
2022-05-03 13:49:07,Connect4,1525,-577,4,-8.2,54.8,3087,722,1536,13,19.2,atest,2
2022-05-03 13:49:07,Connect4,1525,-577,5,-8.6,49.7,3088,722,1536,13,19.2,atest,18.6
2022-05-03 13:49:07,Connect4,1543.8,295,2.8,0.3,61.9,3089,722,1536,4.3,8.6,atest,0.5
2022-05-03 13:49:07,Connect4,1084,666,3,1.1,64,3090,722,1536,-1.3,7.4,atest,1.2
2022-05-03 13:49:07,Connect4,1068.8,768.8,3.1,1,63.7,3091,722,1536,-1.9,7.7,atest,0.5
2022-05-03 13:49:07,Connect4,1090.4,821.2,3.1,0.7,63.4,3092,722,1536,-1.6,7.5,atest,0.5
2022-05-03 13:49:07,Connect4,1069,827.6,3.2,0.8,63.7,3093,722,1536,-2.2,6.9,atest,0.7
2022-05-03 13:49:07,Connect4,1096,842.8,3.2,0.8,63.8,3094,722,1536,-2.3,6.4,atest,0.8
2022-05-03 13:49:07,Connect4,1164.4,908,3,1.3,66.4,3095,722,1536,-2.6,6,atest,1.1
2022-05-03 13:49:07,Connect4,1010.6,868.8,2.8,2.1,70.5,3096,722,1536,-4.4,6.1,atest,1.3
2022-05-03 13:49:07,Connect4,852,525,2.8,2.3,66.6,3097,722,1536,-4,4.8,atest,1.2
2022-05-03 13:49:07,Connect4,574,262,2.6,4.2,66.2,3098,722,1536,-2.1,4.6,atest,1.5
2022-05-03 13:49:07,Connect4,574,262,2.6,4.2,66.2,3099,722,1536,-2.1,4.6,atest,1.5
2022-05-03 13:49:07,Connect4,-463,-231,7.1,-1.9,75.9,3100,722,1536,20.1,-5.4,atest,-0.9
2022-05-03 13:49:07,Connect4,-463,-231,7.1,-1.9,75.9,3101,722,1536,20.1,-5.4,atest,-0.9
2022-05-03 13:49:08,Connect4,-463,-231,7.1,-1.9,75.9,3102,722,1536,20.1,-5.4,atest,-0.9
2022-05-03 13:49:08,Connect4,-463,-231,7.1,-1.9,75.9,3103,722,1536,20.1,-5.4,atest,-0.9
2022-05-03 13:49:08,Connect4,-463,-231,7.1,-1.9,75.9,3104,722,1536,20.1,-5.4,atest,-0.9
2022-05-03 13:49:08,Connect4,-463,-231,7.1,-1.9,75.9,3105,722,1536,20.1,-5.4,atest,-0.9
2022-05-03 13:49:08,Connect4,-463,-231,7.1,-1.9,75.9,3106,722,1536,20.1,-5.4,atest,-0.9
2022-05-03 13:49:08,Connect4,-463,-231,7.1,-1.9,75.9,3107,722,1536,20.1,-5.4,atest,-0.9
2022-05-03 13:49:08,Connect4,-463,-231,7.1,-1.9,75.9,3108,722,1536,20.1,-5.4,atest,-0.9
2022-05-03 13:49:08,Connect4,-463,-231,7.1,-1.9,75.9,3109,722,1536,20.1,-5.4,atest,-0.9
2022-05-03 13:49:08,Connect4,-463,-231,7.1,-1.9,75.9,3110,722,1536,20.1,-5.4,atest,-0.9
2022-05-03 13:49:08,Connect4,-463,-231,7.1,-1.9,75.9,3111,722,1536,20.1,-5.4,atest,-0.9
2022-05-03 13:49:08,Connect4,-463,-231,7.1,-1.9,75.9,3112,722,1536,20.1,-5.4,atest,-0.9
2022-05-03 13:49:08,Connect4,-463,-231,7.1,-1.9,75.9,3113,722,1536,20.1,-5.4,atest,-0.9
2022-05-03 13:49:08,Connect4,-463,-231,7.1,-1.9,75.9,3114,722,1536,20.1,-5.4,atest,-0.9
2022-05-03 13:49:08,Connect4,-463,-231,7.1,-1.9,75.9,3115,722,1536,20.1,-5.4,atest,-0.9
2022-05-03 13:49:08,Connect4,-463,-231,7.1,-1.9,75.9,3116,722,1536,20.1,-5.4,atest,-0.9
2022-05-03 13:49:08,Connect4,-463,-231,7.1,-1.9,75.9,3117,722,1536,20.1,-5.4,atest,-0.9
2022-05-03 13:49:08,Connect4,-463,-231,7.1,-1.9,75.9,3118,722,1536,20.1,-5.4,atest,-0.9
2022-05-03 13:49:08,Connect4,-463,-231,7.1,-1.9,75.9,3119,722,1536,20.1,-5.4,atest,-0.9
2022-05-03 13:49:09,Connect4,-463,-231,7.1,-1.9,75.9,3120,722,1536,20.1,-5.4,atest,-0.9
2022-05-03 13:49:09,Connect4,-463,-231,7.1,-1.9,75.9,3121,722,1536,20.1,-5.4,atest,-0.9
2022-05-03 13:49:09,Connect4,-463,-231,7.1,-1.9,75.9,3122,722,1536,20.1,-5.4,atest,-0.9
2022-05-03 13:49:09,Connect4,899,621,-2.3,10.1,45.1,3123,722,1536,-8.6,-1.6,atest,-1.2
2022-05-03 13:49:09,Connect4,715.6,569.6,-3.4,9.3,44.3,3124,722,1536,-8.8,-3.9,atest,-2.4
2022-05-03 13:49:09,Connect4,798.4,489.4,-5.8,7.5,45,3125,722,1536,-13.7,0.3,atest,-3.1
2022-05-03 13:49:09,Connect4,798.4,489.4,-5.8,7.5,45,3126,722,1536,-13.7,0.3,atest,-3.1
2022-05-03 13:49:09,Connect4,798.4,489.4,-5.8,7.5,45,3127,722,1536,-13.7,0.3,atest,-3.1
2022-05-03 13:49:09,Connect4,798.4,489.4,-5.8,7.5,45,3128,722,1536,-13.7,0.3,atest,-3.1
2022-05-03 13:49:09,Connect4,623.8,508.6,-9.1,3.6,41.7,3129,722,1536,-3.6,-13.2,atest,-3
2022-05-03 13:49:09,Connect4,568.6,520.4,-8.3,2.4,41.7,3130,722,1536,-1.9,-12.9,atest,-2.4
2022-05-03 13:49:09,Connect4,548.6,494,-8.3,2.1,41.5,3131,722,1536,-3.1,-12.9,atest,-2.4
2022-05-03 13:49:09,Connect4,562.8,482,-8.2,1.9,41.3,3132,722,1536,-2.3,-12.8,atest,-2.3
2022-05-03 13:49:09,Connect4,809,-15.4,-8.2,1.8,41.3,3133,722,1536,-2.6,-12.2,atest,-2.3
2022-05-03 13:49:09,Connect4,809,-15.4,-10.1,0.3,40.8,3134,722,1536,-2.6,-12.2,atest,-30.4
2022-05-03 13:49:09,Connect4,184,276,-4.7,-1.5,42.6,3135,722,1536,3,-16,atest,-2.1
2022-05-03 13:49:09,Connect4,717,466,-3.2,-2,40.7,3136,722,1536,5.5,-3.5,atest,-2.3
2022-05-03 13:49:09,Connect4,516.6,480.2,-1.2,-1.9,41.6,3137,722,1536,2.5,-5.6,atest,-0.8
2022-05-03 13:49:09,Connect4,-275,525,-0.3,0.3,45.6,3138,722,1536,2.2,-9.9,atest,1
2022-05-03 13:49:09,Connect4,494,523,-0.1,1.7,42.7,3139,722,1536,1.5,1.3,atest,-0.6
2022-05-03 13:49:10,Connect4,598,518.2,-0.3,2.3,42.6,3140,722,1536,1,1.1,atest,-0.7
2022-05-03 13:49:10,Connect4,633.4,535.4,-0.6,2.8,43.2,3141,722,1536,-5.2,0.1,atest,-0.7
2022-05-03 13:49:10,Connect4,657.8,556.6,-1,3.5,43.8,3142,722,1536,-6.7,-0.3,atest,-0.7
2022-05-03 13:49:10,Connect4,607.6,492.2,-1.3,3.6,44.7,3143,722,1536,-5.8,0,atest,0.2
2022-05-03 13:49:10,Connect4,577.2,477.8,-1.4,3.4,45.1,3144,722,1536,-5.6,0,atest,1.2
2022-05-03 13:49:10,Connect4,573.2,515,-1.3,2.9,45.1,3145,722,1536,-3.5,-0.5,atest,1.4
2022-05-03 13:49:10,Connect4,544.2,500.2,-1.2,2.4,45.1,3146,722,1536,-3.6,-0.8,atest,1.5
2022-05-03 13:49:10,Connect4,382,-1.2,-1,2,44.8,3147,722,1536,-3.8,-0.5,atest,1.5
2022-05-03 13:49:10,Connect4,368.8,-182.6,-0.9,1.8,44.4,3148,722,1536,-4.7,0.1,atest,1.6
2022-05-03 13:49:10,Connect4,323.4,-417.6,-0.9,1.8,44.4,3149,722,1536,-4.6,0.7,atest,1.6
2022-05-03 13:49:10,Connect4,726,338,-0.4,-0.2,43.2,3150,722,1536,-0.5,2.2,atest,0.3
2022-05-03 13:49:10,Connect4,742.8,356,-0.3,-0.5,42.5,3151,722,1536,0.4,2.7,atest,0.3
2022-05-03 13:49:10,Connect4,754.6,389.4,-0.3,-0.6,41.9,3152,722,1536,0.2,3,atest,0.2
2022-05-03 13:49:10,Connect4,766.6,436.2,-0.1,-0.7,40.9,3153,722,1536,-1,3.6,atest,0.1
2022-05-03 13:49:10,Connect4,779,474.6,0,-0.6,40.7,3154,722,1536,-3,4.8,atest,0.1
2022-05-03 13:49:10,Connect4,759.6,482.4,0.2,-0.5,40,3155,722,1536,-2.7,4,atest,1
2022-05-03 13:49:10,Connect4,721.2,452.6,0.2,-0.4,39.8,3156,722,1536,-3,3.9,atest,1
2022-05-03 13:49:10,Connect4,642.8,392.8,0.4,-0.2,39.4,3157,722,1536,-3.9,3.8,atest,1
2022-05-03 13:49:10,Connect4,669.6,417.6,0.3,-0.3,39.6,3158,722,1536,-3.6,3.8,atest,1
2022-05-03 13:49:10,Connect4,621.6,376,0.4,-0.1,39.2,3159,722,1536,-4.1,3.8,atest,1
2022-05-03 13:49:10,Connect4,471.2,358,0.4,-0.1,39.2,3160,722,1536,-5.2,3.4,atest,1
2022-05-03 13:49:10,Connect4,671,-13,0.9,-0.5,36.2,3161,722,1536,0.7,4.7,atest,3
2022-05-03 13:49:11,Connect4,579,339,1.1,-1.1,36.2,3162,722,1536,-1.1,3.8,atest,2.1
2022-05-03 13:49:11,Connect4,631,350.8,1.1,-1.5,36,3163,722,1536,1,4.9,atest,2.2
2022-05-03 13:49:11,Connect4,670.6,406,1.1,-3,35.2,3164,722,1536,7.5,3.5,atest,0.8
2022-05-03 13:49:11,Connect4,696,427.4,1,-3.3,35,3165,722,1536,6,2.8,atest,0.7
2022-05-03 13:49:11,Connect4,790.6,464.4,1,-3.1,35.6,3166,722,1536,2,4.3,atest,0.7
2022-05-03 13:49:11,Connect4,757.4,478.4,0.3,-2.8,36.3,3167,722,1536,3.2,1.6,atest,0.6
2022-05-03 13:49:11,Connect4,710.2,458.8,0.2,-2.4,36.6,3168,722,1536,0.4,-1.2,atest,1.4
2022-05-03 13:49:11,Connect4,660.2,480.4,0.2,-1.6,36.9,3169,722,1536,0.1,-3,atest,2.7
2022-05-03 13:49:11,Connect4,633.2,463.8,0.4,-1.1,37.5,3170,722,1536,-1.7,-2.6,atest,3.4
2022-05-03 13:49:11,Connect4,610.6,455,0.5,-0.9,37.6,3171,722,1536,-0.9,-1.7,atest,3.5
2022-05-03 13:49:11,Connect4,593.4,443.6,1,-0.7,37.8,3172,722,1536,-0.4,0,atest,3
2022-05-03 13:49:11,Connect4,563.8,438,1.3,-0.7,37.8,3173,722,1536,-1.7,-0.6,atest,2.5
2022-05-03 13:49:11,Connect4,530.2,435.6,1.7,-0.6,37.8,3174,722,1536,-2.1,-0.8,atest,2.4
2022-05-03 13:49:11,Connect4,270.8,475.8,2,-0.7,37.7,3175,722,1536,-3.7,-0.9,atest,2.4
2022-05-03 13:49:11,Connect4,264.2,430,2.2,-0.7,37.6,3176,722,1536,-4.6,-0.6,atest,2.4
2022-05-03 13:49:11,Connect4,299.8,377.2,2.3,-0.7,37.6,3177,722,1536,-4.5,-0.3,atest,2.3
2022-05-03 13:49:11,Connect4,321.2,360.2,2.3,-0.7,37.6,3178,722,1536,-4.2,-0.2,atest,2.3
2022-05-03 13:49:11,Connect4,812.2,466.4,2.4,-0.4,37.9,3180,722,1536,1.3,1.1,atest,2.3
2022-05-03 13:49:11,Connect4,731.2,467.6,2.4,-0.3,38,3181,722,1536,1.3,0.7,atest,2.2
2022-05-03 13:49:11,Connect4,637.2,471,2.4,-0.1,38.1,3182,722,1536,1.2,0.3,atest,2.2
2022-05-03 13:49:11,Connect4,464,471.2,2.4,0,38.2,3183,722,1536,1.2,0.2,atest,2.1
2022-05-03 13:49:11,Connect4,452.4,473.8,2.3,0,38.1,3184,722,1536,1.3,0.3,atest,2
2022-05-03 13:49:11,Connect4,500.4,483.4,2.3,0,38.1,3185,722,1536,1.8,0.7,atest,2
2022-05-03 13:49:12,Connect4,617.2,471.6,2.3,0.1,38.1,3186,722,1536,-0.5,1.7,atest,2
2022-05-03 13:49:12,Connect4,936,440.4,2.3,0.2,38,3187,722,1536,-0.6,2.4,atest,1.9
2022-05-03 13:49:12,Connect4,1049.6,415.6,2.2,0.2,37.9,3188,722,1536,-1.3,3,atest,1.8
2022-05-03 13:49:12,Connect4,1004.2,326.8,2.2,0.3,37.9,3189,722,1536,-1.5,2.6,atest,1.8
2022-05-03 13:49:12,Connect4,383,341,2.1,0.3,37.8,3190,722,1536,-1.8,1.1,atest,1.7
2022-05-03 13:49:12,Connect4,367.6,458.6,2.2,0.4,37.9,3191,722,1536,-4.2,0.9,atest,2.9
2022-05-03 13:49:12,Connect4,393.4,490.2,2.3,0.4,38,3192,722,1536,-3.4,-0.7,atest,2.8
2022-05-03 13:49:12,Connect4,408.6,495.8,2.3,0.5,38.1,3193,722,1536,-3,-0.8,atest,2.8
2022-05-03 13:49:12,Connect4,415.6,500.4,2.4,0.6,38.2,3194,722,1536,-2.9,-0.8,atest,2.8
2022-05-03 13:49:12,Connect4,395.6,511.2,2.4,0.6,38.2,3195,722,1536,-3.2,-0.8,atest,2.8
2022-05-03 13:49:12,Connect4,362.8,513.6,2.5,0.7,38.3,3196,722,1536,-4.6,-0.7,atest,2.8
2022-05-03 13:49:12,Connect4,305.2,505,2.5,0.7,38.3,3197,722,1536,-6.2,-0.3,atest,2.7
2022-05-03 13:49:12,Connect4,377.4,484.8,2.8,0.8,38.5,3198,722,1536,-4.6,0.9,atest,4.4
2022-05-03 13:49:12,Connect4,408.6,476.2,3.1,0.6,38.5,3199,722,1536,-3.2,2,atest,4.3
2022-05-03 13:49:12,Connect4,435.8,478.4,4,-0.4,38,3200,722,1536,1.4,2.4,atest,3.4
2022-05-03 13:49:12,Connect4,466,469.8,3.9,-0.8,37.7,3201,722,1536,4.2,2.8,atest,2.6
2022-05-03 13:49:12,Connect4,477.4,477.2,3.2,-2.2,37,3202,722,1536,7.6,1.3,atest,2.4
2022-05-03 13:49:12,Connect4,495.8,455.8,2.5,-3.1,36.5,3203,722,1536,7,1.6,atest,2.3
2022-05-03 13:49:12,Connect4,519.6,497,2.3,-3.3,36.3,3204,722,1536,6.9,1.2,atest,2.3
2022-05-03 13:49:12,Connect4,530.6,495,2.2,-3.3,36.1,3205,722,1536,5,1.1,atest,2.3
2022-05-03 13:49:12,Connect4,529.8,492.2,2.2,-3.4,36.1,3206,722,1536,5.1,1.3,atest,2.3
2022-05-03 13:49:12,Connect4,512,474.8,2.1,-3.5,35.9,3207,722,1536,5.6,1.9,atest,2.6
2022-05-03 13:49:13,Connect4,196,84,2.1,-3.5,35.9,3208,722,1536,5.6,1.8,atest,2.7
2022-05-03 13:49:13,Connect4,183,-7.2,2.2,-3.5,36,3209,722,1536,5.6,2.1,atest,2.7
2022-05-03 13:49:13,Connect4,168.6,-21,2.2,-3.5,36,3210,722,1536,5.4,2.1,atest,2.8
2022-05-03 13:49:13,Connect4,156.6,-17.2,2.3,-3.6,36,3211,722,1536,5.4,2.1,atest,2.8
2022-05-03 13:49:13,Connect4,129.4,-257.8,2.3,-3.6,36,3212,722,1536,3.8,3.2,atest,2.8
2022-05-03 13:49:13,Connect4,541,324,2.4,-4,35.9,3213,722,1536,6.5,2.7,atest,2.7
2022-05-03 13:49:13,Connect4,599,377.2,2.6,-4.3,35.7,3214,722,1536,6.3,2.7,atest,2.7
2022-05-03 13:49:13,Connect4,606.2,393.6,2.8,-3.9,35.7,3215,722,1536,7.2,3.7,atest,2.4
2022-05-03 13:49:13,Connect4,610,394.6,3.2,-2.9,35.9,3216,722,1536,4.5,3.2,atest,2.9
2022-05-03 13:49:13,Connect4,608.8,385.4,3.2,-2.7,36.2,3217,722,1536,4.5,3.6,atest,2.9
2022-05-03 13:49:13,Connect4,604.2,408.8,3.2,-2.5,36.4,3218,722,1536,4.2,3.1,atest,3
2022-05-03 13:49:13,Connect4,605.4,457.2,3.2,-2.2,36.8,3219,722,1536,4.5,3.1,atest,2.9
2022-05-03 13:49:13,Connect4,604,431.8,3.2,-2.4,36.5,3220,722,1536,4.3,3,atest,3
2022-05-03 13:49:13,Connect4,613.2,478.6,3.1,-2.1,36.9,3221,722,1536,4.6,3.2,atest,2.9
2022-05-03 13:49:13,Connect4,628.2,484.8,3.1,-2,37,3222,722,1536,4.8,3.4,atest,2.8
2022-05-03 13:49:13,Connect4,645.8,486.8,3.1,-2,37,3223,722,1536,4.8,3.5,atest,2.8
2022-05-03 13:49:13,Connect4,639.6,489.6,3.1,-1.9,37,3224,722,1536,3.2,1.4,atest,2.8
2022-05-03 13:49:13,Connect4,625.4,486.6,3,-1.9,37,3225,722,1536,3,0.6,atest,2.9
2022-05-03 13:49:13,Connect4,614.6,491.2,3,-1.8,37,3226,722,1536,2.7,0.7,atest,3
2022-05-03 13:49:13,Connect4,600.2,491.4,2.9,-1.8,37,3227,722,1536,2.7,0.6,atest,3.2
2022-05-03 13:49:13,Connect4,582.4,487.6,2.9,-1.7,37.1,3228,722,1536,2.7,0.6,atest,3.3
2022-05-03 13:49:13,Connect4,569.4,493.8,2.9,-1.7,37.1,3229,722,1536,2.7,0.6,atest,3.4
2022-05-03 13:49:13,Connect4,555.4,498.6,3,-1.7,37.1,3230,722,1536,2.8,0.6,atest,3.5
2022-05-03 13:49:14,Connect4,549.6,499.2,3,-1.7,37.1,3231,722,1536,2.8,0.6,atest,3.5
2022-05-03 13:49:14,Connect4,533.4,503.8,3,-1.7,37.1,3232,722,1536,2.8,0.6,atest,3.5
2022-05-03 13:49:14,Connect4,507.4,490.4,3,-1.7,37.1,3233,722,1536,2.1,0.7,atest,3.6
2022-05-03 13:49:14,Connect4,487,491.8,3,-1.7,37.1,3234,722,1536,1.9,0.6,atest,3.6
2022-05-03 13:49:14,Connect4,472.2,482.6,3,-1.7,37.1,3235,722,1536,1.8,0.5,atest,3.7
2022-05-03 13:49:14,Connect4,432.8,460.2,3.1,-1.6,37.1,3236,722,1536,1.8,0.5,atest,3.8
2022-05-03 13:49:14,Connect4,388,446.2,3.1,-1.6,37.1,3237,722,1536,1.7,0.5,atest,3.8
2022-05-03 13:49:14,Connect4,380.4,450.2,3.1,-1.6,37.1,3238,722,1536,1.7,0.5,atest,3.8
2022-05-03 13:49:14,Connect4,435.2,461.8,3.3,-1.8,37.2,3239,722,1536,2.8,1,atest,3.9
2022-05-03 13:49:14,Connect4,469.4,468.2,3.3,-1.7,37.2,3240,722,1536,2.7,1.6,atest,4.2
2022-05-03 13:49:14,Connect4,488.8,477,3.3,-1.7,37.2,3241,722,1536,2.8,1.7,atest,4.2
2022-05-03 13:49:14,Connect4,506.4,474.4,3.3,-1.7,37.3,3242,722,1536,2.7,1.7,atest,4.2
2022-05-03 13:49:14,Connect4,515.6,475.6,3.3,-1.7,37.3,3243,722,1536,2.7,1.7,atest,4.2
2022-05-03 13:49:14,Connect4,526,475.6,3.3,-1.7,37.3,3244,722,1536,2.8,1.7,atest,4.2
2022-05-03 13:49:14,Connect4,542.4,476.8,3.3,-1.7,37.3,3245,722,1536,2.8,1.6,atest,4.2
2022-05-03 13:49:14,Connect4,658.2,499.4,3.2,-1.5,37.6,3246,722,1536,2.1,1.4,atest,3.5
2022-05-03 13:49:14,Connect4,650.6,510.8,3.2,-1.5,37.6,3247,722,1536,2,1.4,atest,3.5
2022-05-03 13:49:14,Connect4,638,517.6,3.2,-1.5,37.6,3248,722,1536,2,1.3,atest,3.5
2022-05-03 13:49:14,Connect4,639.2,522.6,3.2,-1.5,37.6,3249,722,1536,2,1.2,atest,3.5
2022-05-03 13:49:14,Connect4,643.6,528.8,3.2,-1.5,37.6,3250,722,1536,1.9,1.2,atest,3.5
2022-05-03 13:49:14,Connect4,654.2,531,3.2,-1.5,37.6,3251,722,1536,2,1.3,atest,3.5
2022-05-03 13:49:14,Connect4,661,519.2,2.9,-1.4,37.9,3252,722,1536,2.1,1.4,atest,3.3
2022-05-03 13:49:15,Connect4,645.6,489.8,2.2,-1.1,38.4,3253,722,1536,1.5,-0.3,atest,2.4
2022-05-03 13:49:15,Connect4,625.2,499,0.4,-1.6,38.3,3254,722,1536,2.2,-1,atest,2
2022-05-03 13:49:15,Connect4,652,507,-0.1,-1.7,38.6,3255,722,1536,1.6,0.2,atest,1.7
2022-05-03 13:49:15,Connect4,613.2,511,-0.8,-1.7,38.3,3256,722,1536,2.2,-4.9,atest,1.1
2022-05-03 13:49:15,Connect4,593.6,508.2,-1.6,-1.6,38.5,3257,722,1536,1.6,-6.1,atest,0.7
2022-05-03 13:49:15,Connect4,583.2,508.4,-1.7,-1.7,38.2,3258,722,1536,2.5,-7.2,atest,0.7
2022-05-03 13:49:15,Connect4,573.2,503.4,-1.6,-1.7,38,3259,722,1536,2.8,-6.9,atest,0.7
2022-05-03 13:49:15,Connect4,565.2,499.2,-0.8,-1.8,37.9,3260,722,1536,3.3,-5.3,atest,1.1
2022-05-03 13:49:15,Connect4,553.4,490.2,-0.3,-1.9,38,3261,722,1536,3.2,-4.7,atest,1.3
2022-05-03 13:49:15,Connect4,520.8,479.6,0.2,-2,37.8,3262,722,1536,3.3,-4,atest,1.4
2022-05-03 13:49:15,Connect4,520,481.6,0.7,-2,37.5,3263,722,1536,3.2,-3,atest,1.3
2022-05-03 13:49:15,Connect4,566.4,520,0.9,-2,37.1,3264,722,1536,4.1,-1.4,atest,1.1
2022-05-03 13:49:15,Connect4,588.6,533.8,1,-2,36.9,3265,722,1536,4.3,-0.4,atest,0.8
2022-05-03 13:49:15,Connect4,604.4,553.2,1,-2.1,36.9,3266,722,1536,4.2,-0.3,atest,1.2
2022-05-03 13:49:15,Connect4,628.2,572.4,0.9,-2.2,37,3267,722,1536,3.9,-0.4,atest,1.1
2022-05-03 13:49:15,Connect4,629.8,571.2,0.9,-2.2,37,3268,722,1536,3.7,-0.4,atest,1.1
2022-05-03 13:49:15,Connect4,599.6,582.2,1,-2.3,37.4,3269,722,1536,3.6,-0.8,atest,1.1
2022-05-03 13:49:15,Connect4,607,571.4,1.9,-2.5,37.7,3270,722,1536,1,-1.4,atest,2.2
2022-05-03 13:49:15,Connect4,589.4,544.2,2.4,-2.5,37.8,3271,722,1536,-1,-2.6,atest,2.8
2022-05-03 13:49:15,Connect4,576.2,544.2,3.2,-2.7,37.5,3272,722,1536,0.8,-2.8,atest,2.7
2022-05-03 13:49:15,Connect4,564.2,512.8,3.4,-2.6,38.1,3273,722,1536,-1.2,-4.1,atest,3.7
2022-05-03 13:49:16,Connect4,554,497.6,3.3,-2.7,37.8,3274,722,1536,-0.4,-5,atest,3.5
2022-05-03 13:49:16,Connect4,553.2,494.4,3.4,-2.7,38.1,3275,722,1536,-0.7,-5.9,atest,3.5
2022-05-03 13:49:16,Connect4,557,493,3.4,-2.7,38.1,3276,722,1536,-0.6,-6,atest,3.5
2022-05-03 13:49:16,Connect4,571.6,495.2,3.4,-2.7,38.1,3277,722,1536,-0.5,-6,atest,3.5
2022-05-03 13:49:16,Connect4,612.2,460.2,3.4,-2.7,38.2,3278,722,1536,-0.4,-5.9,atest,3.5
2022-05-03 13:49:16,Connect4,643.4,444.6,3.1,-3,38.9,3279,722,1536,0.4,-8.9,atest,3.1
2022-05-03 13:49:16,Connect4,581.2,471.8,2.4,-3,38.2,3280,722,1536,0.5,-10.2,atest,2.4
2022-05-03 13:49:16,Connect4,554.6,487.4,2.4,-3.1,38.4,3281,722,1536,-0.5,-11.6,atest,3
2022-05-03 13:49:16,Connect4,540.8,404,3.5,-3.1,39.9,3282,722,1536,-4.3,-13.9,atest,3.2
2022-05-03 13:49:16,Connect4,134,157,4.3,-3.2,40.9,3283,722,1536,-4.5,-17.6,atest,4.6
2022-05-03 13:49:16,Connect4,-347,28,4.9,-3.2,41.5,3284,722,1536,-5.1,-18.9,atest,5.5
2022-05-03 13:49:16,Connect4,-548.4,84.8,5.8,-3.3,41,3285,722,1536,-4.8,-28.6,atest,5.8
2022-05-03 13:49:16,Connect4,-707,32.4,6,-3.3,40.3,3286,722,1536,-2.4,-30.6,atest,5.8
2022-05-03 13:49:16,Connect4,-661.4,50,6.3,-3.4,41.1,3287,722,1536,-0.7,-32.5,atest,5.5
2022-05-03 13:49:16,Connect4,-781.2,36.6,6.9,-3.8,44.6,3288,722,1536,-0.5,-34.2,atest,2
2022-05-03 13:49:16,Connect4,-2433,-179,8.1,-4.4,49.9,3289,722,1536,2.1,-29.2,atest,0.2
2022-05-03 13:49:16,Connect4,-5100,-2.2,8.5,-4.4,50.7,3290,722,1536,7.4,-33.5,atest,-0.8
2022-05-03 13:49:16,Connect4,-5116.6,-11.4,8.5,-4.3,48.7,3291,722,1536,7.3,-31.5,atest,2.1
2022-05-03 13:49:16,Connect4,-2504,230,7.3,-3.5,43.2,3292,722,1536,4,-25.9,atest,6.1
2022-05-03 13:49:16,Connect4,-591,102,6.1,-3.2,39.6,3293,722,1536,-4.7,-21.8,atest,7.7
2022-05-03 13:49:16,Connect4,85,55,5.7,-3.2,39.2,3294,722,1536,-7.3,-16.2,atest,6.3
2022-05-03 13:49:16,Connect4,553,132,4.7,-3.4,39,3295,722,1536,-5.7,-6.4,atest,4.1
2022-05-03 13:49:17,Connect4,587.2,161.8,4.1,-3.4,38.5,3296,722,1536,-5.3,-2.9,atest,3.4
2022-05-03 13:49:17,Connect4,645.8,207,3.5,-3.4,38.5,3297,722,1536,-4.9,1.5,atest,2
2022-05-03 13:49:17,Connect4,929.6,308.6,2.1,-3.1,38.3,3298,722,1536,-5.6,8.1,atest,0.6
2022-05-03 13:49:17,Connect4,889.2,221.2,0.7,-3,37,3299,722,1536,-4.9,12.2,atest,-1.9
2022-05-03 13:49:17,Connect4,1080,289.4,0.5,-3.1,37.3,3300,722,1536,-3.8,12.8,atest,-1.3
2022-05-03 13:49:17,Connect4,1134,335.4,0.4,-3.1,37.3,3301,722,1536,-2.3,12.6,atest,-1.1
2022-05-03 13:49:17,Connect4,1144,358,0.1,-3.1,37.5,3302,722,1536,-2.3,12.8,atest,-1.1
2022-05-03 13:49:17,Connect4,1142.8,370.8,0.1,-3.1,37.5,3303,722,1536,-2.4,13,atest,-1.1
2022-05-03 13:49:17,Connect4,1106.2,374.8,0.2,-3.1,37.6,3304,722,1536,-2.7,12.8,atest,-1.1
2022-05-03 13:49:17,Connect4,1039.8,344.4,0.2,-3.2,37.6,3305,722,1536,-3.1,12.4,atest,-1
2022-05-03 13:49:17,Connect4,997.8,326.6,0.3,-3.2,37.8,3306,722,1536,-3.7,11.7,atest,-1
2022-05-03 13:49:17,Connect4,1030,358.2,0.4,-3.2,37.8,3307,722,1536,-4.4,10.8,atest,-1.1
2022-05-03 13:49:17,Connect4,1097.2,372.8,0.5,-3.3,37.9,3308,722,1536,-4.2,10.2,atest,-1.2
2022-05-03 13:49:17,Connect4,1140.6,393.6,0.5,-3.3,37.9,3309,722,1536,-4,9.9,atest,-1.7
2022-05-03 13:49:17,Connect4,1135,409.2,-0.1,-3.4,37.9,3310,722,1536,-4,8.4,atest,-1.8
2022-05-03 13:49:17,Connect4,1110.6,411.6,-0.6,-3.4,38,3311,722,1536,-4.3,6.3,atest,-2.1
2022-05-03 13:49:17,Connect4,1088.2,411.4,-0.7,-3.4,38,3312,722,1536,-4.4,5,atest,-1.9
2022-05-03 13:49:17,Connect4,1047.4,408,-0.7,-3.4,38.1,3313,722,1536,-4.6,4.8,atest,-1.8
2022-05-03 13:49:17,Connect4,906.6,317.2,-0.4,-3.5,39.4,3314,722,1536,-6.1,4.4,atest,-0.8
2022-05-03 13:49:17,Connect4,895.4,325.4,-0.2,-3.5,41.4,3315,722,1536,-9.9,0.5,atest,0.6
2022-05-03 13:49:17,Connect4,872,338.2,-0.1,-3.5,41.4,3316,722,1536,-9.6,0.3,atest,0.3
2022-05-03 13:49:18,Connect4,862.2,337,-0.1,-3.5,41.3,3317,722,1536,-9.5,0.3,atest,0.3
2022-05-03 13:49:18,Connect4,865.6,313.6,-0.1,-3.5,41.1,3318,722,1536,-9.5,0.3,atest,0.4
2022-05-03 13:49:18,Connect4,891.2,300.2,-0.1,-3.5,41,3319,722,1536,-9.3,0.7,atest,0.4
2022-05-03 13:49:18,Connect4,837.4,262.6,-0.1,-3.4,40.9,3320,722,1536,-9.3,0.7,atest,0.3
2022-05-03 13:49:18,Connect4,846.6,258.6,-0.1,-3.4,40.7,3321,722,1536,-9.4,0.6,atest,0.4
2022-05-03 13:49:18,Connect4,873.6,302.4,-0.1,-3.4,40.6,3322,722,1536,-9.4,0.7,atest,0.4
2022-05-03 13:49:18,Connect4,870.6,345.8,-0.1,-3.4,40.6,3323,722,1536,-8.2,1.1,atest,0.4
2022-05-03 13:49:18,Connect4,876.2,331,-0.3,-3.1,38.9,3324,722,1536,-7.6,1.4,atest,-0.2
2022-05-03 13:49:18,Connect4,837.6,312.2,-0.4,-3.1,38.8,3325,722,1536,-7.6,1.1,atest,-0.4
2022-05-03 13:49:18,Connect4,811.2,297.8,-0.4,-3.2,38.8,3326,722,1536,-7.8,0.8,atest,-0.2
2022-05-03 13:49:18,Connect4,792.8,289,-0.5,-3.1,39,3327,722,1536,-9.7,0.8,atest,-0.9
2022-05-03 13:49:18,Connect4,777.6,283,-0.6,-2.8,39.5,3328,722,1536,-9.1,0,atest,-1
2022-05-03 13:49:18,Connect4,733.8,261.6,-0.6,-2.9,39.2,3329,722,1536,-9.3,-3.4,atest,-0.4
2022-05-03 13:49:18,Connect4,697.2,237.6,-0.8,-2.9,38.7,3330,722,1536,-7.9,-5.1,atest,-0.4
2022-05-03 13:49:18,Connect4,473.6,138.6,-0.8,-3.1,38.5,3331,722,1536,-6.8,-6.3,atest,-0.6
2022-05-03 13:49:18,Connect4,399.6,112.8,-0.7,-3.3,38.3,3332,722,1536,-6.3,-8.1,atest,-0.8
2022-05-03 13:49:18,Connect4,350.4,108.4,-0.6,-3.3,38.3,3333,722,1536,-7.6,-11.7,atest,-1.3
2022-05-03 13:49:18,Connect4,410.6,76.6,-0.6,-3.3,38.2,3334,722,1536,-6.7,-12.2,atest,-1.4
2022-05-03 13:49:18,Connect4,377.8,46.2,-0.5,-3.4,38.2,3335,722,1536,-5.9,-12.2,atest,-1.4
2022-05-03 13:49:18,Connect4,382.4,62.8,-0.4,-3.5,38.1,3336,722,1536,-7.9,-12.1,atest,-1.1
2022-05-03 13:49:18,Connect4,413.4,71.8,0.1,-3.8,38,3337,722,1536,-7.4,-9.3,atest,0.2
2022-05-03 13:49:18,Connect4,432.2,76,0.2,-3.8,38,3338,722,1536,-7.6,-7.6,atest,0.4
2022-05-03 13:49:19,Connect4,442.6,88,0.3,-3.8,38,3339,722,1536,-6.9,-6.7,atest,0.6
2022-05-03 13:49:19,Connect4,453.4,99,0.3,-3.8,38,3340,722,1536,-6.8,-6.5,atest,0.8
2022-05-03 13:49:19,Connect4,482.4,80,0.4,-3.7,38,3341,722,1536,-6.6,-6.6,atest,0.9
2022-05-03 13:49:19,Connect4,435,23.6,0.4,-3.7,38.1,3342,722,1536,-6.6,-6.7,atest,0.9
2022-05-03 13:49:19,Connect4,482.2,87.4,1.2,-3.9,38.1,3343,722,1536,-6.5,-3.1,atest,1.8
2022-05-03 13:49:19,Connect4,488.2,108.2,1.6,-3.8,38.2,3344,722,1536,-7.6,-1.5,atest,2.3
2022-05-03 13:49:19,Connect4,478.2,87.4,3.2,-3.7,39,3345,722,1536,-11.5,-2,atest,3
2022-05-03 13:49:19,Connect4,539.2,89,3.3,-3.7,38.8,3346,722,1536,-9.6,1.9,atest,3
2022-05-03 13:49:19,Connect4,634.8,118.8,3.3,-3.6,38.7,3347,722,1536,-9.5,5.5,atest,1.2
2022-05-03 13:49:19,Connect4,994.6,199.6,3,-3.6,38.8,3348,722,1536,-9,9.1,atest,0.4
2022-05-03 13:49:19,Connect4,994.2,226.8,2,-3.7,38.4,3349,722,1536,-8.9,8.4,atest,-0.4
2022-05-03 13:49:19,Connect4,950.6,263,1.9,-3.7,38.4,3350,722,1536,-8.3,4.8,atest,0.1
2022-05-03 13:49:19,Connect4,865.2,257,2.1,-3.7,38.7,3351,722,1536,-7.6,1.9,atest,1.4
2022-05-03 13:49:19,Connect4,781.4,256.4,2.3,-3.6,38.8,3352,722,1536,-6.2,-0.9,atest,2.5
2022-05-03 13:49:19,Connect4,564.6,234.8,3.3,-3.6,39.6,3353,722,1536,-7.5,-4.2,atest,4
2022-05-03 13:49:19,Connect4,540.6,224.8,3,-3.6,39.3,3354,722,1536,-8,-4.5,atest,3.5
2022-05-03 13:49:19,Connect4,541.6,225.4,3.1,-3.6,39.2,3355,722,1536,-7.4,-3.9,atest,3.2
2022-05-03 13:49:19,Connect4,541,220.8,3.1,-3.6,39.2,3356,722,1536,-7.4,-3.9,atest,3.2
2022-05-03 13:49:19,Connect4,63,274,3.2,-3.6,39.2,3357,722,1536,-9.1,-4,atest,3.2
2022-05-03 13:49:19,Connect4,148.4,227.6,4.1,-3.5,39,3358,722,1536,-6.6,-3.1,atest,3.2
2022-05-03 13:49:19,Connect4,153.8,175.4,5.9,-3.4,39.7,3359,722,1536,-8.6,-7.1,atest,5.2
2022-05-03 13:49:19,Connect4,132.8,141.2,6,-3.2,39.4,3360,722,1536,-8.1,-9.6,atest,5.2
2022-05-03 13:49:20,Connect4,187.6,147,6,-3.2,39.1,3361,722,1536,-6.9,-7.1,atest,5.2
2022-05-03 13:49:20,Connect4,273.4,129.4,5.9,-3.3,39.2,3362,722,1536,-7.5,-6.9,atest,5.2
2022-05-03 13:49:20,Connect4,401.4,30.6,5.3,-3.3,40.5,3363,722,1536,-6.8,-4.7,atest,5.1
2022-05-03 13:49:20,Connect4,451.8,90.4,4.9,-3.3,40.1,3364,722,1536,-7.8,-1.8,atest,4.3
2022-05-03 13:49:20,Connect4,482.6,130.6,4.2,-3.2,39.4,3365,722,1536,-7.2,1,atest,3.6
2022-05-03 13:49:20,Connect4,951,287,2,-3.2,39.9,3366,722,1536,-7.3,7.1,atest,1.8
2022-05-03 13:49:20,Connect4,1280,69,0.1,-3.2,40.8,3367,722,1536,-4.4,13.7,atest,0.2
2022-05-03 13:49:20,Connect4,1140.4,189.8,-0.9,-3,38.9,3368,722,1536,-8.6,7.3,atest,-1.5
2022-05-03 13:49:20,Connect4,1146,246.4,-1.9,-2.9,38.2,3369,722,1536,-6.8,6.2,atest,-3.4
2022-05-03 13:49:20,Connect4,1086.4,326,-2.1,-2.8,38,3370,722,1536,-6.1,7.7,atest,-4.3
2022-05-03 13:49:20,Connect4,1119.6,346.8,-2.3,-2.8,38,3371,722,1536,-5.4,8.5,atest,-4.4
2022-05-03 13:49:20,Connect4,1122.2,358.8,-2.9,-2.6,37.3,3372,722,1536,-5.1,7.4,atest,-5.4
2022-05-03 13:49:20,Connect4,1061.8,365.6,-3.6,-2.4,37,3373,722,1536,-5.9,3.9,atest,-5.6
2022-05-03 13:49:20,Connect4,1018.6,373.6,-4.2,-2.1,37.4,3374,722,1536,-5.9,0.7,atest,-5.8
2022-05-03 13:49:20,Connect4,976.4,365.6,-5.8,-1.8,37.8,3375,722,1536,-7.9,-2.5,atest,-7.2
2022-05-03 13:49:20,Connect4,938.4,366.4,-6.1,-1.8,37.8,3376,722,1536,-7.9,-7.5,atest,-7.1
2022-05-03 13:49:20,Connect4,797.8,368.2,-6,-1.8,37.8,3377,722,1536,-5.9,-8.5,atest,-6.3
2022-05-03 13:49:20,Connect4,346,190,-5.7,-2,38.1,3378,722,1536,-5.9,-8.7,atest,-5.3
2022-05-03 13:49:20,Connect4,281.2,239.8,-3.3,-2.4,39.1,3379,722,1536,-8.8,-11.4,atest,-2.3
2022-05-03 13:49:21,Connect4,276,271,-3,-2.4,39.1,3380,722,1536,-7.8,-11.4,atest,-0.9
2022-05-03 13:49:21,Connect4,255.8,285.6,-2.8,-2.5,39.1,3381,722,1536,-7.9,-10.8,atest,-0.9
2022-05-03 13:49:21,Connect4,376.2,297.8,-2.4,-2.7,38.8,3382,722,1536,-7.3,-3.5,atest,-0.8
2022-05-03 13:49:21,Connect4,415.2,308.2,-1.5,-2.8,38.6,3383,722,1536,-8.6,-2.2,atest,-0.7
2022-05-03 13:49:21,Connect4,444,321,-1.4,-2.8,38.7,3384,722,1536,-8.6,-2.2,atest,-0.6
2022-05-03 13:49:21,Connect4,637.4,349.8,-1.4,-2.8,38.6,3385,722,1536,-7.9,0.4,atest,-0.5
2022-05-03 13:49:21,Connect4,671.6,359.6,-1.2,-2.7,38.7,3386,722,1536,-7.9,0.7,atest,-0.6
2022-05-03 13:49:21,Connect4,689.2,361.8,-1.2,-2.8,38.5,3387,722,1536,-7.9,1,atest,-0.7
2022-05-03 13:49:21,Connect4,610,316,-1.2,-2.7,38.4,3388,722,1536,-8.3,0.8,atest,-0.8
2022-05-03 13:49:21,Connect4,562,285.6,-1.2,-2.7,38.5,3389,722,1536,-8.6,0.7,atest,-0.9
2022-05-03 13:49:21,Connect4,531.6,268.6,-1.2,-2.7,38.5,3390,722,1536,-8.7,0.6,atest,-1
2022-05-03 13:49:21,Connect4,503,262.2,-1.2,-2.7,38.5,3391,722,1536,-8.8,0.5,atest,-1
2022-05-03 13:49:21,Connect4,630.4,327,-1.1,-2.7,38.5,3392,722,1536,-8,1.9,atest,-0.8
2022-05-03 13:49:21,Connect4,697,342,-1,-2.8,38.5,3393,722,1536,-7.9,2.1,atest,-0.8
2022-05-03 13:49:21,Connect4,755,351.4,-1,-2.8,38.6,3394,722,1536,-8,2.2,atest,-0.7
2022-05-03 13:49:21,Connect4,796.2,347.4,-0.9,-2.8,38.6,3395,722,1536,-8.1,2.2,atest,-0.6
2022-05-03 13:49:21,Connect4,807.2,324.8,-0.9,-2.8,38.6,3396,722,1536,-8.3,2.1,atest,-0.5
2022-05-03 13:49:21,Connect4,762.8,287.4,-0.9,-2.8,38.6,3397,722,1536,-8.8,1.7,atest,-0.5
2022-05-03 13:49:21,Connect4,723.8,305.2,-0.8,-2.8,38.5,3398,722,1536,-7.6,2,atest,-0.5
2022-05-03 13:49:21,Connect4,697,261,-0.8,-2.9,38.4,3399,722,1536,-7.7,1.9,atest,-0.5
2022-05-03 13:49:21,Connect4,656.2,200.2,-0.8,-2.9,38.3,3400,722,1536,-8,1.8,atest,-0.5
2022-05-03 13:49:21,Connect4,370.4,-113.2,-0.8,-2.9,38.2,3401,722,1536,-8.3,1.8,atest,-0.5
2022-05-03 13:49:22,Connect4,240.4,-217.6,-0.8,-3,38.1,3402,722,1536,-8.7,2.1,atest,-0.5
2022-05-03 13:49:22,Connect4,388,253,-0.6,-3.1,38.1,3403,722,1536,-7.5,3.6,atest,-0.5
2022-05-03 13:49:22,Connect4,840,431,-0.4,-3.1,38.1,3404,722,1536,-7.4,3.5,atest,-0.3
2022-05-03 13:49:22,Connect4,881.4,455,-0.3,-3.1,38.1,3405,722,1536,-7.7,3.3,atest,-0.2
2022-05-03 13:49:22,Connect4,918.4,461.8,-0.2,-3.2,38.2,3406,722,1536,-7.7,3.4,atest,-0.1
2022-05-03 13:49:22,Connect4,949.4,474,0,-3.2,38.3,3407,722,1536,-7.7,3.5,atest,0
2022-05-03 13:49:22,Connect4,992,490.8,0,-3.2,38.3,3408,722,1536,-7.6,3.6,atest,0.1
2022-05-03 13:49:22,Connect4,1136.8,525.8,-0.1,-3.2,38.4,3409,722,1536,-7.5,4,atest,0.1
2022-05-03 13:49:22,Connect4,1277.4,534.6,-0.1,-3.2,38.4,3410,722,1536,-7.4,4.4,atest,0.1
2022-05-03 13:49:22,Connect4,1376.8,516.4,-0.1,-3.2,38.4,3411,722,1536,-7.4,4.5,atest,0.1
2022-05-03 13:49:22,Connect4,1223.4,504.4,-0.2,-3.2,38.4,3412,722,1536,-8.1,2.5,atest,0.1
2022-05-03 13:49:22,Connect4,482,313,-0.4,-3.3,38.5,3413,722,1536,-8.6,1.2,atest,0.1
2022-05-03 13:49:22,Connect4,561.2,384.2,-0.6,-3.2,38.6,3414,722,1536,-8.2,1.4,atest,0.1
2022-05-03 13:49:22,Connect4,631.4,416.2,-0.7,-3.2,38.6,3415,722,1536,-7.8,1.6,atest,0.1
2022-05-03 13:49:22,Connect4,678.6,423.2,-0.9,-3.2,38.6,3416,722,1536,-7.5,1.6,atest,0
2022-05-03 13:49:22,Connect4,752.4,451.8,-1,-3.2,38.7,3417,722,1536,-7.4,1.6,atest,0
2022-05-03 13:49:22,Connect4,780.4,454.6,-1,-3.2,38.6,3418,722,1536,-7.4,1.7,atest,0
2022-05-03 13:49:22,Connect4,805.4,453.4,-1,-3.2,38.6,3419,722,1536,-7.4,1.7,atest,-0.1
2022-05-03 13:49:22,Connect4,823.4,452.8,-1,-3.2,38.6,3420,722,1536,-7.4,1.8,atest,-0.1
2022-05-03 13:49:22,Connect4,837.6,449.2,-1,-3.2,38.6,3421,722,1536,-7.4,1.7,atest,-0.1
2022-05-03 13:49:22,Connect4,894,483.6,-1,-3.2,38.6,3422,722,1536,-7.4,1.8,atest,-0.1
2022-05-03 13:49:23,Connect4,977,517.2,-1,-3.2,38.6,3423,722,1536,-6.9,2,atest,-0.1
2022-05-03 13:49:23,Connect4,1048.4,535.2,-1,-3.1,38.6,3424,722,1536,-6.6,2.4,atest,-0.1
2022-05-03 13:49:23,Connect4,1251.4,484.8,-1,-3.1,38.6,3425,722,1536,-6.6,2.8,atest,-0.1
2022-05-03 13:49:23,Connect4,1367,300.6,-1,-3.1,38.6,3426,722,1536,-7,3.3,atest,-0.1
2022-05-03 13:49:23,Connect4,1220,324.8,-1.1,-3.1,38.5,3427,722,1536,-7.2,2.5,atest,-1.2
2022-05-03 13:49:23,Connect4,963.6,374.2,-1.2,-3.1,38.5,3428,722,1536,-7.2,2.4,atest,-1.2
2022-05-03 13:49:23,Connect4,777,344,-1.6,-3,38.6,3429,722,1536,-7.4,2.5,atest,-1.7
2022-05-03 13:49:23,Connect4,737.4,313.8,-1.7,-3,38.7,3430,722,1536,-7.5,2.6,atest,-1.7
2022-05-03 13:49:23,Connect4,713.6,299.4,-1.7,-3.1,38.8,3431,722,1536,-7.5,2.6,atest,-1.7
2022-05-03 13:49:23,Connect4,697.8,278.2,-1.7,-3.1,38.9,3432,722,1536,-7.5,2.6,atest,-1.7
2022-05-03 13:49:23,Connect4,704.6,238,-1.7,-3.1,39,3433,722,1536,-7.5,2.6,atest,-1.7
2022-05-03 13:49:23,Connect4,683.8,172.4,-1.7,-3.1,39,3434,722,1536,-7.7,2.6,atest,-1.7
2022-05-03 13:49:23,Connect4,758.8,236.4,-1.7,-3.1,38.9,3435,722,1536,-6.5,2.8,atest,-1.1
2022-05-03 13:49:23,Connect4,1064.4,363.6,-1.7,-3.2,38.8,3436,722,1536,-5.7,3.3,atest,-1.1
2022-05-03 13:49:23,Connect4,1533,325,-1.6,-3.2,38.8,3437,722,1536,-5.2,4.2,atest,-1.1
2022-05-03 13:49:23,Connect4,1546,255,-1.6,-3.2,38.7,3438,722,1536,-5.1,4.5,atest,-1.1
2022-05-03 13:49:23,Connect4,1548.4,241.6,-1.6,-3.3,38.6,3439,722,1536,-5,4.5,atest,-1.1
2022-05-03 13:49:23,Connect4,1474.8,304.4,-1.5,-3.3,38.6,3440,722,1536,-6,3.4,atest,-1.1
2022-05-03 13:49:23,Connect4,1396.8,333.6,-1.5,-3.3,38.6,3441,722,1536,-6.1,3.2,atest,-1.1
2022-05-03 13:49:23,Connect4,741,305,-1.6,-3.3,38.6,3442,722,1536,-6.7,2.1,atest,-1.1
2022-05-03 13:49:23,Connect4,718.6,307.4,-1.6,-3.3,38.7,3443,722,1536,-6.7,2,atest,-1.2
2022-05-03 13:49:23,Connect4,741,318,-1.7,-3.3,38.8,3444,722,1536,-6.7,2.1,atest,-1.2
2022-05-03 13:49:23,Connect4,727,318.2,-1.7,-3.3,38.8,3445,722,1536,-6.7,2.1,atest,-1.2
2022-05-03 13:49:23,Connect4,710,312,-1.8,-3.3,38.9,3446,722,1536,-6.7,2.1,atest,-1.3
2022-05-03 13:49:23,Connect4,699.6,326.4,-1.8,-3.3,38.9,3447,722,1536,-6.8,2.1,atest,-1.3
2022-05-03 13:49:23,Connect4,697.8,338.4,-1.8,-3.3,38.9,3448,722,1536,-6.8,2,atest,-1.3
2022-05-03 13:49:23,Connect4,696.4,344.8,-1.8,-3.3,38.8,3449,722,1536,-7.1,2.1,atest,-0.6
2022-05-03 13:49:24,Connect4,699.8,350.4,-1.7,-3.3,38.8,3450,722,1536,-7.1,2.1,atest,-0.6
2022-05-03 13:49:24,Connect4,716,362.2,-1.7,-3.2,38.7,3451,722,1536,-7,2.1,atest,-0.6
2022-05-03 13:49:24,Connect4,740.6,376.2,-1.6,-3.2,38.6,3452,722,1536,-6.7,2.3,atest,-0.6
2022-05-03 13:49:24,Connect4,764,382.6,-1.6,-3.2,38.6,3453,722,1536,-6.6,2.4,atest,-0.6
2022-05-03 13:49:24,Connect4,795.6,393.6,-1.6,-3.2,38.5,3454,722,1536,-6.5,2.5,atest,-0.6
2022-05-03 13:49:24,Connect4,815.4,404,-1.6,-3.2,38.5,3455,722,1536,-6.5,2.5,atest,-0.6
2022-05-03 13:49:24,Connect4,829.6,413,-1.6,-3.2,38.5,3456,722,1536,-6.6,2.4,atest,-0.6
2022-05-03 13:49:24,Connect4,836,420.2,-1.6,-3.2,38.5,3457,722,1536,-6.6,2.4,atest,-0.6
2022-05-03 13:49:24,Connect4,841,424.4,-1.6,-3.2,38.5,3458,722,1536,-6.6,2.4,atest,-0.6
2022-05-03 13:49:24,Connect4,845.4,428,-1.6,-3.2,38.4,3459,722,1536,-6.6,2.3,atest,-0.6
2022-05-03 13:49:24,Connect4,853.6,430.2,-1.6,-3.2,38.4,3460,722,1536,-6.6,2.3,atest,-0.5
2022-05-03 13:49:24,Connect4,873.4,439.6,-1.6,-3.2,38.4,3461,722,1536,-6.6,2.3,atest,-0.5
2022-05-03 13:49:24,Connect4,882.4,444,-1.6,-3.2,38.4,3462,722,1536,-6.6,2.3,atest,-0.5
2022-05-03 13:49:24,Connect4,898.6,450.8,-1.6,-3.2,38.4,3463,722,1536,-6.6,2.3,atest,-0.5
2022-05-03 13:49:24,Connect4,913.2,458.2,-1.6,-3.2,38.4,3464,722,1536,-6.5,2.4,atest,-0.5
2022-05-03 13:49:24,Connect4,927.4,467.6,-1.6,-3.2,38.4,3465,722,1536,-6.5,2.4,atest,-0.5
2022-05-03 13:49:24,Connect4,940.6,478,-1.6,-3.2,38.5,3466,722,1536,-6.4,2.4,atest,-0.5
2022-05-03 13:49:24,Connect4,950.2,487.8,-1.6,-3.2,38.5,3467,722,1536,-6.3,2.3,atest,-0.5
2022-05-03 13:49:24,Connect4,955,497,-1.6,-3.2,38.5,3468,722,1536,-6.3,2.3,atest,-0.5
2022-05-03 13:49:24,Connect4,958.8,505,-1.6,-3.2,38.5,3469,722,1536,-6.2,2.3,atest,-0.5
2022-05-03 13:49:24,Connect4,942.2,493.6,-1.6,-3.2,38.5,3470,722,1536,-6.7,2.2,atest,-0.4
2022-05-03 13:49:24,Connect4,939,489.6,-1.6,-3.1,38.6,3471,722,1536,-6.7,2.2,atest,-0.4
2022-05-03 13:49:24,Connect4,942.6,486.6,-1.6,-3.1,38.7,3472,722,1536,-6.8,2.2,atest,-0.3
2022-05-03 13:49:24,Connect4,949.6,485.6,-1.6,-3.1,38.7,3473,722,1536,-6.9,2.2,atest,-0.3
2022-05-03 13:49:24,Connect4,954.4,484.8,-1.6,-3.1,38.8,3474,722,1536,-6.9,2.3,atest,-0.3
2022-05-03 13:49:24,Connect4,959.2,484,-1.6,-3,38.8,3475,722,1536,-6.9,2.3,atest,-0.2
2022-05-03 13:49:24,Connect4,963.4,483.8,-1.6,-3,38.8,3476,722,1536,-6.9,2.3,atest,-0.2
2022-05-03 13:49:25,Connect4,969.6,477.4,-1.7,-3,38.9,3477,722,1536,-6.8,2.1,atest,-0.3
2022-05-03 13:49:25,Connect4,972.6,461.8,-1.7,-3.1,39,3478,722,1536,-6.9,2.1,atest,-0.3
2022-05-03 13:49:25,Connect4,974,452.8,-1.7,-3.1,39,3479,722,1536,-7,2,atest,-0.4
2022-05-03 13:49:25,Connect4,974.8,449.4,-1.7,-3.1,39.1,3480,722,1536,-7.1,2,atest,-0.4
2022-05-03 13:49:25,Connect4,974.6,443.6,-1.7,-3.1,39.1,3481,722,1536,-7.1,1.9,atest,-0.5
2022-05-03 13:49:25,Connect4,977.8,448,-1.7,-3.1,39.2,3482,722,1536,-7.2,1.9,atest,-0.5
2022-05-03 13:49:25,Connect4,982,437.4,-1.7,-3.1,39.2,3483,722,1536,-7.2,2,atest,-0.5
2022-05-03 13:49:25,Connect4,974.6,423.4,-1.8,-3.1,38.5,3484,722,1536,-6.4,1.7,atest,-0.4
2022-05-03 13:49:25,Connect4,976.6,422.6,-1.8,-3.1,38.5,3485,722,1536,-6.1,1.8,atest,-0.4
2022-05-03 13:49:25,Connect4,967.4,414.2,-1.9,-3.2,38.6,3486,722,1536,-6.2,1.6,atest,-0.5
2022-05-03 13:49:25,Connect4,956.6,411,-2,-3.2,38.4,3487,722,1536,-6.4,1.4,atest,-0.6
2022-05-03 13:49:25,Connect4,949.4,411,-2.3,-3.3,38.2,3488,722,1536,-5.9,1.4,atest,-1.3
2022-05-03 13:49:25,Connect4,946.4,414,-2.3,-3.2,38.2,3489,722,1536,-6.1,1.4,atest,-1.3
2022-05-03 13:49:25,Connect4,913.6,410.2,-2.3,-3.1,38.1,3490,722,1536,-6.6,1.8,atest,-2.2
2022-05-03 13:49:25,Connect4,938,425.4,-2.4,-3.1,38,3491,722,1536,-6.6,1.6,atest,-1.5
2022-05-03 13:49:25,Connect4,907.4,443.6,-2.2,-3.1,38.1,3492,722,1536,-6.7,2.2,atest,-2
2022-05-03 13:49:25,Connect4,911.4,435.6,-2.4,-3,38.1,3493,722,1536,-6.6,1.7,atest,-1.9
2022-05-03 13:49:25,Connect4,925.4,456.6,-2.6,-3,37.8,3494,722,1536,-6.4,1.6,atest,-2.2
2022-05-03 13:49:25,Connect4,947.4,466.6,-3,-3.1,37.9,3495,722,1536,-6.3,1.8,atest,-3.1
2022-05-03 13:49:26,Connect4,981.8,499.8,-3.1,-3.1,38,3496,722,1536,-5.1,1.6,atest,-2.9
2022-05-03 13:49:26,Connect4,997.6,526.6,-3.1,-3.2,38.1,3497,722,1536,-5.1,1.8,atest,-3.3
2022-05-03 13:49:26,Connect4,1031.6,528.8,-2.8,-3.3,37.7,3498,722,1536,-5.5,2.2,atest,-3.2
2022-05-03 13:49:26,Connect4,1054.6,551.8,-2.8,-3.3,37.6,3499,722,1536,-5.2,2.2,atest,-3.1
2022-05-03 13:49:26,Connect4,1070,565.2,-2.8,-3.1,37.7,3500,722,1536,-6.2,1.9,atest,-3.2
2022-05-03 13:49:26,Connect4,1067.6,538.8,-2.8,-3.1,37.8,3501,722,1536,-6.4,2,atest,-3
2022-05-03 13:49:26,Connect4,1070.2,561.2,-2.8,-3.1,37.9,3502,722,1536,-6,2.2,atest,-3.2
2022-05-03 13:49:26,Connect4,1065.4,533.2,-2.5,-2.9,37.9,3503,722,1536,-5.8,2.6,atest,-2.7
2022-05-03 13:49:26,Connect4,1047.2,454.8,-2.3,-2.9,37.9,3504,722,1536,-4.8,3.2,atest,-2.3
2022-05-03 13:49:26,Connect4,1081.8,437.2,-2.1,-3,37.7,3505,722,1536,-4.8,3.8,atest,-2.1
2022-05-03 13:49:26,Connect4,1190,485.2,-2.3,-3.2,37.8,3506,722,1536,-4.2,2.8,atest,-2.6
2022-05-03 13:49:26,Connect4,1160.8,452.6,-2.6,-3.1,37.4,3507,722,1536,-4.3,2.7,atest,-2.6
2022-05-03 13:49:26,Connect4,1136.8,450.4,-2.9,-3.3,37.3,3508,722,1536,-3.6,2.5,atest,-3.2
2022-05-03 13:49:26,Connect4,1116,433.8,-2.6,-3.3,37.5,3509,722,1536,-4.5,2.4,atest,-3
2022-05-03 13:49:26,Connect4,1102,419,-2.5,-3.3,37.6,3510,722,1536,-4.4,2.7,atest,-3.1
2022-05-03 13:49:26,Connect4,1087.8,424.4,-2.4,-3.2,37.6,3511,722,1536,-4.9,2.5,atest,-3.1
2022-05-03 13:49:26,Connect4,1072.6,476,-2.3,-2.9,38,3512,722,1536,-5.9,2.6,atest,-2.5
2022-05-03 13:49:26,Connect4,1090.6,487,-2.2,-2.8,38.3,3513,722,1536,-5.9,3.1,atest,-2.8
2022-05-03 13:49:26,Connect4,1102.6,463.4,-2.2,-2.6,38.3,3514,722,1536,-6.9,2.3,atest,-2.4
2022-05-03 13:49:26,Connect4,1079.2,420.2,-2.3,-2.8,37.9,3515,722,1536,-7,2,atest,-2.5
2022-05-03 13:49:26,Connect4,1026.6,403.6,-2.5,-2.9,38,3516,722,1536,-6.6,1.5,atest,-2.3
2022-05-03 13:49:26,Connect4,1043.2,419.2,-2.3,-3,37.9,3517,722,1536,-6.4,1.8,atest,-1.9
2022-05-03 13:49:27,Connect4,1031.4,462.8,-2.4,-2.9,38,3518,722,1536,-6.7,1.6,atest,-2.6
2022-05-03 13:49:27,Connect4,1029.8,468.8,-2.4,-2.9,38,3519,722,1536,-6.5,1.8,atest,-2.2
2022-05-03 13:49:27,Connect4,1002.2,476,-2.4,-2.9,38,3520,722,1536,-6.6,1.3,atest,-2.3
2022-05-03 13:49:27,Connect4,985.4,475.2,-2.4,-2.8,38,3521,722,1536,-6.9,1.2,atest,-2
2022-05-03 13:49:27,Connect4,985.8,479.6,-2.4,-2.8,38,3522,722,1536,-6.3,1.4,atest,-2
2022-05-03 13:49:27,Connect4,981.6,482.6,-2.4,-2.8,38.1,3523,722,1536,-6.4,1.5,atest,-2.4
2022-05-03 13:49:27,Connect4,985,490.8,-2.4,-2.8,37.9,3524,722,1536,-6.4,1.6,atest,-2.2
2022-05-03 13:49:27,Connect4,970.6,471.6,-2.3,-2.6,38.1,3525,722,1536,-6.5,1.1,atest,-2
2022-05-03 13:49:27,Connect4,913.6,417,-2.3,-2.5,38.4,3526,722,1536,-6.3,1.4,atest,-1.6
2022-05-03 13:49:27,Connect4,922,410.6,-2.2,-2.7,38.4,3527,722,1536,-7.3,1,atest,-1.3
2022-05-03 13:49:27,Connect4,913,391.4,-2.2,-2.7,38.5,3528,722,1536,-7.4,0.7,atest,-1.3
2022-05-03 13:49:27,Connect4,929,387.6,-2.2,-2.7,38.4,3529,722,1536,-7,0.7,atest,-1.1
2022-05-03 13:49:27,Connect4,933.8,381.4,-2.2,-2.7,38.2,3530,722,1536,-6.6,0.8,atest,-1.4
2022-05-03 13:49:27,Connect4,936.2,378.2,-2.2,-2.7,38.3,3531,722,1536,-7,0.8,atest,-1.2
2022-05-03 13:49:27,Connect4,921.4,368.2,-2.2,-2.7,38.3,3532,722,1536,-7.1,0.4,atest,-0.8
2022-05-03 13:49:27,Connect4,916,373.6,-2.2,-2.7,38.4,3533,722,1536,-6.7,0.8,atest,-1.2
2022-05-03 13:49:27,Connect4,911.6,364.8,-2.2,-2.7,38.4,3534,722,1536,-7.1,0.7,atest,-1.4
2022-05-03 13:49:27,Connect4,912.4,350.2,-2.2,-2.7,38.3,3535,722,1536,-7,0.6,atest,-0.8
2022-05-03 13:49:27,Connect4,906.6,328.8,-2.2,-2.7,38.3,3536,722,1536,-7.2,0.6,atest,-1.1
2022-05-03 13:49:27,Connect4,909.2,315.2,-2.2,-2.7,38.5,3537,722,1536,-7.3,0.7,atest,-1.1
2022-05-03 13:49:28,Connect4,912.8,311.2,-2.2,-2.7,38.5,3538,722,1536,-7.2,0.6,atest,-1.3
2022-05-03 13:49:28,Connect4,914.2,308,-2.2,-2.7,38.5,3539,722,1536,-7.5,0.6,atest,-1
2022-05-03 13:49:28,Connect4,919.2,316,-2.2,-2.6,38.5,3540,722,1536,-7.3,0.5,atest,-1
2022-05-03 13:49:28,Connect4,919.8,309.8,-2.2,-2.6,38.9,3541,722,1536,-7.6,0.7,atest,-1.1
2022-05-03 13:49:28,Connect4,903,302.4,-2.3,-2.6,38.5,3542,722,1536,-7.6,0.3,atest,-1.3
2022-05-03 13:49:28,Connect4,902,290.6,-2.2,-2.7,38.4,3543,722,1536,-6.9,0.8,atest,-1.4
2022-05-03 13:49:28,Connect4,902.4,278.4,-2.2,-2.7,38.6,3544,722,1536,-7,0.7,atest,-1.4
2022-05-03 13:49:28,Connect4,908.6,274.4,-2.2,-2.7,38.4,3545,722,1536,-7.2,0.9,atest,-1.2
2022-05-03 13:49:28,Connect4,919.6,275.2,-2.2,-2.7,38.4,3546,722,1536,-6.8,0.8,atest,-1.8
2022-05-03 13:49:28,Connect4,925.2,281.6,-2.2,-2.7,38.5,3547,722,1536,-7.1,0.8,atest,-1.3
2022-05-03 13:49:28,Connect4,932.4,286.2,-2.2,-2.7,38.5,3548,722,1536,-6.8,0.7,atest,-1.4
2022-05-03 13:49:28,Connect4,936.2,287,-2.2,-2.7,38.4,3549,722,1536,-7.4,0.6,atest,-1.3
2022-05-03 13:49:28,Connect4,939.6,292,-2.2,-2.7,38.4,3550,722,1536,-7,0.8,atest,-1.1
2022-05-03 13:49:28,Connect4,935.8,291,-2.2,-2.7,38.7,3551,722,1536,-7.7,0.7,atest,-0.9
2022-05-03 13:49:28,Connect4,924.4,286.4,-2.2,-2.6,38.4,3552,722,1536,-7.7,0.6,atest,-0.9
2022-05-03 13:49:28,Connect4,927.8,289,-2.2,-2.7,38.6,3553,722,1536,-7.1,0.8,atest,-1.4
2022-05-03 13:49:28,Connect4,929.4,295.8,-2.2,-2.7,38.6,3554,722,1536,-7.2,0.8,atest,-1.4
2022-05-03 13:49:28,Connect4,936.6,286.8,-2.2,-2.7,38.6,3555,722,1536,-7.6,0.6,atest,-1.2
2022-05-03 13:49:28,Connect4,940.4,279.6,-2.2,-2.6,38.7,3556,722,1536,-8.1,0.6,atest,-1.1
2022-05-03 13:49:28,Connect4,941,278.8,-2.2,-2.6,38.6,3557,722,1536,-7.8,0.5,atest,-0.8
2022-05-03 13:49:28,Connect4,942.2,274.6,-2.2,-2.6,38.7,3558,722,1536,-7.7,0.7,atest,-0.8
2022-05-03 13:49:29,Connect4,942.2,271,-2.2,-2.6,38.7,3559,722,1536,-8.3,0.8,atest,-0.7
2022-05-03 13:49:29,Connect4,946.6,258.2,-2.2,-2.6,38.8,3560,722,1536,-8.5,0.8,atest,-1.1
2022-05-03 13:49:29,Connect4,944.4,246,-2.2,-2.7,38.8,3561,722,1536,-8.4,0.6,atest,-1.3
2022-05-03 13:49:29,Connect4,941,233,-2.2,-2.7,39,3562,722,1536,-8.8,0.5,atest,-0.9
2022-05-03 13:49:29,Connect4,938.2,232.6,-2.2,-2.7,38.8,3563,722,1536,-8,0.6,atest,-0.9
2022-05-03 13:49:29,Connect4,930,224.4,-2.2,-2.7,38.8,3564,722,1536,-8.4,0.5,atest,-0.6
2022-05-03 13:49:29,Connect4,928.6,225.8,-2.2,-2.7,39.1,3565,722,1536,-8.9,0.6,atest,-0.8
2022-05-03 13:49:29,Connect4,926,236.4,-2.2,-2.7,38.8,3566,722,1536,-8.2,0.4,atest,-0.8
2022-05-03 13:49:29,Connect4,923.6,239.4,-2.2,-2.7,38.7,3567,722,1536,-8.3,0.4,atest,-0.7
2022-05-03 13:49:29,Connect4,923,241.6,-2.2,-2.7,38.8,3568,722,1536,-8.9,0.5,atest,-0.7
2022-05-03 13:49:29,Connect4,929.2,248.2,-2.2,-2.7,38.6,3569,722,1536,-8.4,0.6,atest,-0.7
2022-05-03 13:49:29,Connect4,935.6,245.4,-2.2,-2.6,38.7,3570,722,1536,-9,0.5,atest,-0.9
2022-05-03 13:49:29,Connect4,939,249,-2.2,-2.7,38.7,3571,722,1536,-8.2,0.6,atest,-0.8
2022-05-03 13:49:29,Connect4,946.2,251.6,-2.2,-2.6,38.9,3572,722,1536,-9,0.8,atest,-0.8
2022-05-03 13:49:29,Connect4,937.8,254,-2.2,-2.7,38.9,3573,722,1536,-8.9,0.8,atest,-0.9
2022-05-03 13:49:29,Connect4,885.2,266.6,-2.2,-2.6,38.8,3574,722,1536,-9,1,atest,-1.1
2022-05-03 13:49:29,Connect4,817.2,304.4,-2.2,-2.8,39,3575,722,1536,-8.2,1,atest,-1.2
2022-05-03 13:49:29,Connect4,774.4,318,-2.1,-2.7,38.8,3576,722,1536,-7.6,1,atest,-1.2
2022-05-03 13:49:29,Connect4,752.8,320.8,-2.1,-2.8,38.8,3577,722,1536,-7.8,1.2,atest,-1.2
2022-05-03 13:49:29,Connect4,474,337.8,-2.1,-2.8,38.8,3578,722,1536,-7,1.3,atest,-1.5
2022-05-03 13:49:29,Connect4,454.2,338,-2.1,-2.9,38.9,3579,722,1536,-6.2,1.2,atest,-1.5
2022-05-03 13:49:30,Connect4,451.8,335.4,-2.1,-2.9,38.8,3580,722,1536,-6.4,1.4,atest,-1.4
2022-05-03 13:49:30,Connect4,435.4,330,-2.1,-2.9,38.5,3581,722,1536,-6.4,1.3,atest,-1.4
2022-05-03 13:49:30,Connect4,420.2,319.2,-2.1,-2.9,38.8,3582,722,1536,-6.8,1.2,atest,-1.7
2022-05-03 13:49:30,Connect4,410.2,319.6,-2.1,-2.9,38.6,3583,722,1536,-6.6,1.2,atest,-1.9
2022-05-03 13:49:30,Connect4,397.8,326.4,-2.1,-2.9,38.4,3584,722,1536,-6.7,1.2,atest,-1.9
2022-05-03 13:49:30,Connect4,389,325,-2.1,-2.8,38.3,3585,722,1536,-7,1.3,atest,-1.9
2022-05-03 13:49:30,Connect4,387,331,-2.1,-2.8,38.4,3586,722,1536,-6.5,1.2,atest,-2
2022-05-03 13:49:30,Connect4,381,333,-2.1,-2.8,38.4,3587,722,1536,-6.7,1.1,atest,-1.8
2022-05-03 13:49:30,Connect4,361.6,325.2,-2.1,-2.8,38.5,3588,722,1536,-6.9,1.1,atest,-1.5
2022-05-03 13:49:30,Connect4,346.4,322.4,-2.1,-2.8,38.6,3589,722,1536,-7,1,atest,-1.7
2022-05-03 13:49:30,Connect4,345.6,324.2,-2.1,-2.8,38.7,3590,722,1536,-7,1.1,atest,-1.7
2022-05-03 13:49:30,Connect4,342.6,318.6,-2.1,-2.8,38.6,3591,722,1536,-6.8,1.1,atest,-1.7
2022-05-03 13:49:30,Connect4,335.4,319.6,-2.1,-2.8,38.6,3592,722,1536,-6.6,1.2,atest,-1.7
2022-05-03 13:49:30,Connect4,330,319,-2.1,-2.8,38.5,3593,722,1536,-6.5,1,atest,-1.5
2022-05-03 13:49:30,Connect4,331.6,312.8,-2.1,-2.8,38.7,3594,722,1536,-7,1.1,atest,-1.7
2022-05-03 13:49:30,Connect4,335.6,320.4,-2.1,-2.8,38.3,3595,722,1536,-6.5,1.4,atest,-1.9
2022-05-03 13:49:30,Connect4,342,321,-2.1,-2.9,38.4,3596,722,1536,-6.5,1.3,atest,-1.8
2022-05-03 13:49:30,Connect4,346.8,321,-2.1,-2.9,38.5,3597,722,1536,-6.5,1.1,atest,-1.9
2022-05-03 13:49:30,Connect4,347,320.2,-2.1,-2.9,38.5,3598,722,1536,-6.7,1.2,atest,-1.5
2022-05-03 13:49:30,Connect4,344.4,322.8,-2.1,-2.9,38.6,3599,722,1536,-6.4,0.9,atest,-1.7
2022-05-03 13:49:31,Connect4,344.6,326.8,-2.1,-2.9,38.6,3600,722,1536,-6.3,1.3,atest,-2
2022-05-03 13:49:31,Connect4,347.8,329.6,-2.1,-2.9,38.5,3601,722,1536,-6.6,1.2,atest,-1.8
2022-05-03 13:49:31,Connect4,350.4,326.4,-2.1,-2.9,38.6,3602,722,1536,-7,0.9,atest,-1.9
2022-05-03 13:49:31,Connect4,364.2,323.4,-2.1,-2.9,38.7,3603,722,1536,-7.4,1.1,atest,-1.7
2022-05-03 13:49:31,Connect4,370.6,312.4,-2.1,-2.9,38.7,3604,722,1536,-7.3,1,atest,-1.8
2022-05-03 13:49:31,Connect4,376.8,329.8,-2,-2.9,38.4,3605,722,1536,-6.5,1.1,atest,-1.5
2022-05-03 13:49:31,Connect4,368.6,313.2,-2,-2.9,38.4,3606,722,1536,-6.6,1.1,atest,-1.5
2022-05-03 13:49:31,Connect4,522.4,314.8,-2.1,-2.8,38.5,3607,722,1536,-6.9,0.8,atest,-1.6
2022-05-03 13:49:31,Connect4,653.6,298.6,-2.1,-2.8,38.8,3608,722,1536,-7.4,0.7,atest,-1.3
2022-05-03 13:49:31,Connect4,729.4,249.4,-2.1,-2.8,38.5,3609,722,1536,-7.4,0.7,atest,-1.4
2022-05-03 13:49:31,Connect4,737,242.4,-2.1,-2.8,38.4,3610,722,1536,-7.2,0.7,atest,-1.5
2022-05-03 13:49:31,Connect4,740.4,246,-2.1,-2.8,38.4,3611,722,1536,-7,0.8,atest,-1.1
2022-05-03 13:49:31,Connect4,726.8,258.8,-2.1,-2.8,38.4,3612,722,1536,-7.1,0.8,atest,-1.3
2022-05-03 13:49:31,Connect4,736,261.4,-2.1,-2.8,38.5,3613,722,1536,-7.5,0.8,atest,-1.5
2022-05-03 13:49:31,Connect4,740,253.6,-2.1,-2.8,38.7,3614,722,1536,-7.2,0.8,atest,-1.3
2022-05-03 13:49:31,Connect4,740,246,-2.1,-2.8,38.6,3615,722,1536,-7.5,0.5,atest,-1.2
2022-05-03 13:49:31,Connect4,742.6,243.6,-2.1,-2.8,38.7,3616,722,1536,-7.6,0.7,atest,-1.3
2022-05-03 13:49:31,Connect4,727.6,243.6,-2.1,-2.7,38.7,3617,722,1536,-7.8,0.8,atest,-1.1
2022-05-03 13:49:32,Connect4,717.4,245,-2.1,-2.7,38.5,3618,722,1536,-7.7,0.6,atest,-1.2
2022-05-03 13:49:32,Connect4,718.2,268.8,-2.1,-2.7,38.4,3619,722,1536,-6.5,0.7,atest,-1.5
2022-05-03 13:49:32,Connect4,721.2,277.2,-2.1,-2.7,38.4,3620,722,1536,-6.5,0.8,atest,-1.5
2022-05-03 13:49:32,Connect4,716,293.4,-2.2,-2.7,38.5,3621,722,1536,-6.4,0.8,atest,-1.5
2022-05-03 13:49:32,Connect4,712.4,285,-2.1,-2.7,38.5,3622,722,1536,-7.1,0.8,atest,-1.6
2022-05-03 13:49:32,Connect4,709,288.4,-2.1,-2.8,38.4,3623,722,1536,-7,0.9,atest,-1.5
2022-05-03 13:49:32,Connect4,716.4,293,-2.1,-2.7,38.4,3624,722,1536,-6.8,0.8,atest,-1.8
2022-05-03 13:49:32,Connect4,716,283,-2.1,-2.7,38.6,3625,722,1536,-7.4,0.9,atest,-1.7
2022-05-03 13:49:32,Connect4,709,285,-2.1,-2.7,38.7,3626,722,1536,-7.2,0.8,atest,-1.8
2022-05-03 13:49:32,Connect4,702.8,279.6,-2.2,-2.8,38.7,3627,722,1536,-7.7,0.6,atest,-1.2
2022-05-03 13:49:32,Connect4,699.6,266,-2.2,-2.8,38.8,3628,722,1536,-7.9,0.7,atest,-1.3
2022-05-03 13:49:32,Connect4,691.6,265.6,-2.1,-2.8,38.5,3629,722,1536,-7.5,0.7,atest,-1.2
2022-05-03 13:49:32,Connect4,683.6,256.6,-2.1,-2.8,38.5,3630,722,1536,-7.8,0.6,atest,-1.2
2022-05-03 13:49:32,Connect4,678.8,260.6,-2.1,-2.7,38.5,3631,722,1536,-7.7,0.6,atest,-1.4
2022-05-03 13:49:32,Connect4,681.2,248.6,-2.1,-2.8,38.4,3632,722,1536,-7.7,0.6,atest,-1.2
2022-05-03 13:49:32,Connect4,681.6,242.4,-2.1,-2.8,38.6,3633,722,1536,-7.4,0.6,atest,-1.2
2022-05-03 13:49:32,Connect4,678.2,238.2,-2.1,-2.8,38.6,3634,722,1536,-7.4,0.6,atest,-1.2
2022-05-03 13:49:32,Connect4,694.4,241.4,-2.1,-2.8,38.6,3635,722,1536,-7.3,0.7,atest,-1.1
2022-05-03 13:49:33,Connect4,691,235.4,-2.1,-2.7,38.8,3636,722,1536,-7.8,0.5,atest,-1.1
2022-05-03 13:49:33,Connect4,697.6,239.6,-2.1,-2.8,38.6,3637,722,1536,-7.2,0.5,atest,-1.3
2022-05-03 13:49:33,Connect4,878.8,233.2,-2.1,-2.7,38.6,3638,722,1536,-7.7,0.5,atest,-0.9
2022-05-03 13:49:33,Connect4,1117.8,228.8,-2.1,-2.7,38.5,3639,722,1536,-7.7,0.7,atest,-0.8
2022-05-03 13:49:33,Connect4,1132,234.8,-2.1,-2.7,38.7,3640,722,1536,-7.6,0.5,atest,-0.8
2022-05-03 13:49:33,Connect4,1149.8,237.8,-2.1,-2.7,38.7,3641,722,1536,-7.7,0.4,atest,-0.8
2022-05-03 13:49:33,Connect4,1165.4,236.4,-2.2,-2.8,38.6,3642,722,1536,-7.8,0.2,atest,-0.7
2022-05-03 13:49:33,Connect4,1168,235.8,-2.1,-2.8,38.6,3643,722,1536,-7.7,0.2,atest,-1.1
2022-05-03 13:49:33,Connect4,1202.4,218.6,-2.1,-2.7,38.9,3644,722,1536,-8.5,0.2,atest,-0.7
2022-05-03 13:49:33,Connect4,1210.4,216.4,-2.1,-2.8,38.9,3645,722,1536,-8.1,0.2,atest,-0.8
2022-05-03 13:49:33,Connect4,1214.2,209,-2.1,-2.7,38.9,3646,722,1536,-8.2,0,atest,-0.6
2022-05-03 13:49:33,Connect4,1220.2,208.8,-2.1,-2.7,38.9,3647,722,1536,-8,0.2,atest,-0.6
2022-05-03 13:49:33,Connect4,1233.2,208.6,-2.1,-2.7,38.9,3648,722,1536,-8.1,0.4,atest,-0.7
2022-05-03 13:49:33,Connect4,1241,219.4,-2.1,-2.7,38.8,3649,722,1536,-7.6,0.5,atest,-0.9
2022-05-03 13:49:33,Connect4,1251,204.8,-2.2,-2.7,39.3,3650,722,1536,-9.1,0.1,atest,-0.8
2022-05-03 13:49:33,Connect4,1263.8,206.8,-2.1,-2.7,38.9,3651,722,1536,-8.5,0.2,atest,-0.8
2022-05-03 13:49:33,Connect4,1269.4,205.6,-2.1,-2.6,39,3652,722,1536,-8.6,0.3,atest,-1.2
2022-05-03 13:49:33,Connect4,1273.8,202,-2.1,-2.6,38.9,3653,722,1536,-8.6,0.2,atest,-1.1
2022-05-03 13:49:33,Connect4,1276.6,200.6,-2.1,-2.6,38.9,3654,722,1536,-8.3,0.1,atest,-0.9
2022-05-03 13:49:33,Connect4,1287.4,204.8,-2.1,-2.6,38.6,3655,722,1536,-7.7,0.5,atest,-1.1
2022-05-03 13:49:33,Connect4,1286.8,212,-2.2,-2.6,38.8,3656,722,1536,-7.6,0.2,atest,-0.7
2022-05-03 13:49:34,Connect4,1289.4,215.4,-2.2,-2.6,38.9,3657,722,1536,-7.3,-0.1,atest,-0.8
2022-05-03 13:49:34,Connect4,1292.2,224.6,-2.2,-2.6,38.6,3658,722,1536,-7.6,0.1,atest,-1.1
2022-05-03 13:49:34,Connect4,1292.8,224.2,-2.2,-2.6,38.8,3659,722,1536,-7.7,0.1,atest,-0.9
2022-05-03 13:49:34,Connect4,1290,240.6,-2.2,-2.7,38.4,3660,722,1536,-6.5,0.6,atest,-1.1
2022-05-03 13:49:34,Connect4,1285.2,241,-2.2,-2.7,38.7,3661,722,1536,-6.9,0.4,atest,-0.9
2022-05-03 13:49:34,Connect4,1282.6,241.8,-2.2,-2.7,38.5,3662,722,1536,-6.6,0.5,atest,-0.9
2022-05-03 13:49:34,Connect4,1280.4,249,-2.2,-2.7,38.6,3663,722,1536,-6.7,0.4,atest,-1.1
2022-05-03 13:49:34,Connect4,1275.4,253.2,-2.2,-2.7,38.6,3664,722,1536,-6.7,0.4,atest,-1
2022-05-03 13:49:34,Connect4,1284.2,252.6,-2.2,-2.7,38.6,3665,722,1536,-6.6,0.4,atest,-0.9
2022-05-03 13:49:34,Connect4,1284,245.4,-2.3,-2.7,38.9,3666,722,1536,-7.1,0.1,atest,-0.8
2022-05-03 13:49:34,Connect4,1286.6,249.6,-2.3,-2.7,38.8,3667,722,1536,-7,0.4,atest,-0.9
2022-05-03 13:49:34,Connect4,1281.6,246.6,-2.3,-2.7,38.8,3668,722,1536,-6.7,0.1,atest,-0.8
2022-05-03 13:49:34,Connect4,1302.6,263,-2.3,-2.7,38.9,3669,722,1536,-6.7,0,atest,-0.7
2022-05-03 13:49:34,Connect4,1322.8,277.4,-2.3,-2.7,38.6,3670,722,1536,-6.1,-0.1,atest,-0.9
2022-05-03 13:49:34,Connect4,1341.4,273.6,-2.3,-2.7,38.8,3671,722,1536,-6.3,0,atest,-0.8
2022-05-03 13:49:34,Connect4,1352,267.4,-2.3,-2.7,38.9,3672,722,1536,-6.5,-0.2,atest,-0.8
2022-05-03 13:49:34,Connect4,1368,270,-2.3,-2.7,38.8,3673,722,1536,-6.2,-0.1,atest,-0.7
2022-05-03 13:49:34,Connect4,1380.8,263,-2.3,-2.7,38.9,3674,722,1536,-6.2,-0.1,atest,-1.1
2022-05-03 13:49:34,Connect4,1392.6,256,-2.3,-2.8,38.9,3675,722,1536,-6.7,-0.5,atest,-1.1
2022-05-03 13:49:35,Connect4,1421,251.6,-2.3,-2.8,39.1,3676,722,1536,-7.1,-0.1,atest,-1.2
2022-05-03 13:49:35,Connect4,1436.2,236.4,-2.3,-2.8,39.1,3677,722,1536,-7.4,-0.1,atest,-0.8
2022-05-03 13:49:35,Connect4,1455.6,231.6,-2.4,-2.8,39.4,3678,722,1536,-6.5,-0.6,atest,-0.8
2022-05-03 13:49:35,Connect4,1469.6,231.4,-2.3,-2.8,39,3679,722,1536,-6.9,-0.5,atest,-0.8
2022-05-03 13:49:35,Connect4,1459.6,222.4,-2.4,-2.8,39.4,3680,722,1536,-7,-0.8,atest,-1.1
2022-05-03 13:49:35,Connect4,1477.8,240,-2.3,-2.8,38.7,3681,722,1536,-6.6,-0.3,atest,-1.1
2022-05-03 13:49:35,Connect4,1484,237,-2.3,-2.8,39,3682,722,1536,-7.2,-0.4,atest,-0.9
2022-05-03 13:49:35,Connect4,1495.6,240.6,-2.2,-2.8,39,3683,722,1536,-6.9,0,atest,-0.9
2022-05-03 13:49:35,Connect4,1491.6,236.4,-2.2,-2.7,38.8,3684,722,1536,-7.1,-0.3,atest,-0.9
2022-05-03 13:49:35,Connect4,1498.6,220.4,-2.2,-2.7,39,3685,722,1536,-7.8,-0.4,atest,-0.7
2022-05-03 13:49:35,Connect4,1502.2,202.2,-2.2,-2.7,39.1,3686,722,1536,-8.4,-0.5,atest,-0.7
2022-05-03 13:49:35,Connect4,1509.2,198.8,-2.3,-2.7,39.1,3687,722,1536,-7.8,-0.6,atest,-0.7
2022-05-03 13:49:35,Connect4,1511.4,197,-2.3,-2.7,39.1,3688,722,1536,-7.7,-0.6,atest,-0.7
2022-05-03 13:49:35,Connect4,1518.8,184,-2.3,-2.7,39.1,3689,722,1536,-8.3,-0.5,atest,-0.6
2022-05-03 13:49:35,Connect4,1525.2,181.2,-2.2,-2.7,39,3690,722,1536,-7.9,-0.4,atest,-0.8
2022-05-03 13:49:35,Connect4,1524.2,179.4,-2.3,-2.8,39.2,3691,722,1536,-7.3,-0.7,atest,-0.5
2022-05-03 13:49:35,Connect4,1526.6,174.4,-2.2,-2.8,39,3692,722,1536,-7.5,-0.5,atest,-0.4
2022-05-03 13:49:35,Connect4,1529.4,164.8,-2.2,-2.8,39.1,3693,722,1536,-7.9,-0.4,atest,-0.5
2022-05-03 13:49:35,Connect4,1525.8,165.6,-2.2,-2.7,39.1,3694,722,1536,-8.2,-0.4,atest,-0.7
2022-05-03 13:49:35,Connect4,1521.4,169,-2.2,-2.7,39,3695,722,1536,-7.7,-0.5,atest,-0.7
2022-05-03 13:49:35,Connect4,1517.8,172.6,-2.2,-2.7,39,3696,722,1536,-8.2,-0.5,atest,-0.8
2022-05-03 13:49:36,Connect4,1525.4,170,-2.2,-2.8,39.4,3697,722,1536,-8.2,-0.3,atest,-0.6
2022-05-03 13:49:36,Connect4,1524.2,165.6,-2.2,-2.7,39.3,3698,722,1536,-8.8,-0.5,atest,-0.8
2022-05-03 13:49:36,Connect4,1525.2,169.2,-2.2,-2.7,39.1,3699,722,1536,-8.2,-0.4,atest,-1.1
2022-05-03 13:49:36,Connect4,1519.2,179.4,-2.2,-2.7,39,3700,722,1536,-8.1,-0.5,atest,-1.2
2022-05-03 13:49:36,Connect4,1522.4,184.4,-2.2,-2.7,39,3701,722,1536,-8.5,-0.4,atest,-0.8
2022-05-03 13:49:36,Connect4,1517.8,193,-2.2,-2.7,39.3,3702,722,1536,-8.6,-0.6,atest,-0.8
2022-05-03 13:49:36,Connect4,1438.4,194.4,-2.2,-2.6,39.2,3703,722,1536,-8.6,-0.4,atest,-0.6
2022-05-03 13:49:36,Connect4,867,222,-2.1,-2.6,39,3704,722,1536,-7.8,0.3,atest,-0.6
2022-05-03 13:49:36,Connect4,869.6,217.2,-2.1,-2.6,38.8,3705,722,1536,-8,0.2,atest,-0.5
2022-05-03 13:49:36,Connect4,879.6,220.6,-2.1,-2.6,38.8,3706,722,1536,-8,0.3,atest,-0.9
2022-05-03 13:49:36,Connect4,749.8,265.6,-2.1,-2.7,39.1,3707,722,1536,-7.9,0.6,atest,-1.3
2022-05-03 13:49:36,Connect4,700.2,274.4,-2,-2.6,38.9,3708,722,1536,-7.7,0.7,atest,-1.3
2022-05-03 13:49:36,Connect4,664.2,276.6,-2,-2.6,39,3709,722,1536,-8.2,0.6,atest,-0.9
2022-05-03 13:49:36,Connect4,644.8,283.8,-2,-2.6,38.8,3710,722,1536,-7.9,0.8,atest,-1.4
2022-05-03 13:49:36,Connect4,532,317.2,-2.1,-2.6,39.1,3712,722,1536,-7.5,0.7,atest,-1.4
2022-05-03 13:49:36,Connect4,522.2,322.8,-2.1,-2.6,39.1,3713,722,1536,-7.1,0.6,atest,-1.2
2022-05-03 13:49:36,Connect4,516.4,310.8,-2.1,-2.6,39,3714,722,1536,-7.6,0.7,atest,-1.3
2022-05-03 13:49:36,Connect4,516.2,310.6,-2.1,-2.6,39.1,3715,722,1536,-7.9,0.8,atest,-1.3
2022-05-03 13:49:36,Connect4,515.4,308.6,-2.1,-2.6,39.1,3716,722,1536,-7.8,0.8,atest,-1.3
2022-05-03 13:49:36,Connect4,588.2,309,-2.1,-2.6,38.8,3717,722,1536,-7.4,0.4,atest,-1.1
2022-05-03 13:49:37,Connect4,1269,241,-2.3,-2.6,39.2,3718,722,1536,-7.9,-0.1,atest,-0.7
2022-05-03 13:49:37,Connect4,1388.6,287,-2.3,-2.6,39.3,3719,722,1536,-8.3,-0.4,atest,-0.7
2022-05-03 13:49:37,Connect4,1428.4,281.4,-2.3,-2.6,39.5,3720,722,1536,-8.2,-0.3,atest,-0.7
2022-05-03 13:49:37,Connect4,1432.6,282.6,-2.3,-2.5,39.3,3721,722,1536,-8.7,-0.5,atest,-0.8
